<?xml version="1.0" encoding="UTF-8"?>
<kml xmlns="http://www.opengis.net/kml/2.2"><Document><Style id="red"><IconStyle><Icon><href>http://maps.google.com/mapfiles/ms/icons/red-dot.png</href></Icon></IconStyle></Style><Style id="yellow"><IconStyle><Icon><href>http://maps.google.com/mapfiles/ms/icons/yellow-dot.png</href></Icon></IconStyle></Style><Style id="green"><IconStyle><Icon><href>http://maps.google.com/mapfiles/ms/icons/green-dot.png</href></Icon></IconStyle></Style><Folder><name>Wifi Networks</name>
<Placemark>
<name><![CDATA[OP2]]></name>
<description><![CDATA[BSSID: <b>a0:63:91:69:f6:af</b><br/>Frequency:<b>1</b><br/>Date: <b>2017-10-27 16:13:51</b>]]></description><styleUrl>#green</styleUrl>
<TimeStamp>
<when>2017-10-27T16:13:51</when>
</TimeStamp>
<Point>
<coordinates>34.81321,32.168766</coordinates>
</Point>
</Placemark>
<Placemark>
<name><![CDATA[Howmanyistwo]]></name>
<description><![CDATA[BSSID: <b>74:da:38:50:77:f2</b><br/>Frequency:<b>2</b><br/>Date: <b>2017-10-27 16:13:51</b>]]></description><styleUrl>#green</styleUrl>
<TimeStamp>
<when>2017-10-27T16:13:51</when>
</TimeStamp>
<Point>
<coordinates>34.81321,32.168766</coordinates>
</Point>
</Placemark>
<Placemark>
<name><![CDATA[tslila]]></name>
<description><![CDATA[BSSID: <b>c4:3d:c7:5a:79:1c</b><br/>Frequency:<b>11</b><br/>Date: <b>2017-10-27 16:13:51</b>]]></description><styleUrl>#green</styleUrl>
<TimeStamp>
<when>2017-10-27T16:13:51</when>
</TimeStamp>
<Point>
<coordinates>34.81321,32.168766</coordinates>
</Point>
</Placemark>
<Placemark>
<name><![CDATA[BezeqFree]]></name>
<description><![CDATA[BSSID: <b>6a:12:f5:f9:5e:71</b><br/>Frequency:<b>8</b><br/>Date: <b>2017-10-27 16:13:53</b>]]></description><styleUrl>#green</styleUrl>
<TimeStamp>
<when>2017-10-27T16:13:53</when>
</TimeStamp>
<Point>
<coordinates>34.813213,32.168766</coordinates>
</Point>
</Placemark>
<Placemark>
<name><![CDATA[Robert1]]></name>
<description><![CDATA[BSSID: <b>3c:1e:04:03:7f:17</b><br/>Frequency:<b>1</b><br/>Date: <b>2017-10-27 16:15:07</b>]]></description><styleUrl>#green</styleUrl>
<TimeStamp>
<when>2017-10-27T16:15:07</when>
</TimeStamp>
<Point>
<coordinates>34.813236,32.16871</coordinates>
</Point>
</Placemark>
<Placemark>
<name><![CDATA[DIRECT-35-HP DeskJet 3830 series]]></name>
<description><![CDATA[BSSID: <b>98:e7:f4:c6:4b:37</b><br/>Frequency:<b>6</b><br/>Date: <b>2017-10-27 16:15:07</b>]]></description><styleUrl>#green</styleUrl>
<TimeStamp>
<when>2017-10-27T16:15:07</when>
</TimeStamp>
<Point>
<coordinates>34.813236,32.16871</coordinates>
</Point>
</Placemark>
<Placemark>
<name><![CDATA[HUAWEI-C7FB]]></name>
<description><![CDATA[BSSID: <b>48:db:50:34:c7:fb</b><br/>Frequency:<b>1</b><br/>Date: <b>2017-10-27 16:15:07</b>]]></description><styleUrl>#green</styleUrl>
<TimeStamp>
<when>2017-10-27T16:15:07</when>
</TimeStamp>
<Point>
<coordinates>34.813236,32.16871</coordinates>
</Point>
</Placemark>
<Placemark>
<name><![CDATA[hilda]]></name>
<description><![CDATA[BSSID: <b>00:02:6f:eb:a0:f4</b><br/>Frequency:<b>11</b><br/>Date: <b>2017-10-27 16:15:07</b>]]></description><styleUrl>#green</styleUrl>
<TimeStamp>
<when>2017-10-27T16:15:07</when>
</TimeStamp>
<Point>
<coordinates>34.813236,32.16871</coordinates>
</Point>
</Placemark>
<Placemark>
<name><![CDATA[DIRECT-A5-HP DeskJet 4670 series]]></name>
<description><![CDATA[BSSID: <b>fc:3f:db:7e:60:a6</b><br/>Frequency:<b>10</b><br/>Date: <b>2017-10-27 16:15:37</b>]]></description><styleUrl>#green</styleUrl>
<TimeStamp>
<when>2017-10-27T16:15:37</when>
</TimeStamp>
<Point>
<coordinates>34.81237,32.16881</coordinates>
</Point>
</Placemark>
<Placemark>
<name><![CDATA[May]]></name>
<description><![CDATA[BSSID: <b>14:cc:20:eb:cb:c6</b><br/>Frequency:<b>1</b><br/>Date: <b>2017-10-27 16:15:37</b>]]></description><styleUrl>#green</styleUrl>
<TimeStamp>
<when>2017-10-27T16:15:37</when>
</TimeStamp>
<Point>
<coordinates>34.81237,32.16881</coordinates>
</Point>
</Placemark>
<Placemark>
<name><![CDATA[HOTBOX-D1D7]]></name>
<description><![CDATA[BSSID: <b>fc:b4:e6:cf:d1:dd</b><br/>Frequency:<b>1</b><br/>Date: <b>2017-10-27 16:15:37</b>]]></description><styleUrl>#green</styleUrl>
<TimeStamp>
<when>2017-10-27T16:15:37</when>
</TimeStamp>
<Point>
<coordinates>34.81237,32.16881</coordinates>
</Point>
</Placemark>
<Placemark>
<name><![CDATA[Fuck Off Yourself]]></name>
<description><![CDATA[BSSID: <b>16:ae:db:c1:ae:55</b><br/>Frequency:<b>9</b><br/>Date: <b>2017-10-27 16:15:37</b>]]></description><styleUrl>#green</styleUrl>
<TimeStamp>
<when>2017-10-27T16:15:37</when>
</TimeStamp>
<Point>
<coordinates>34.81237,32.16881</coordinates>
</Point>
</Placemark>
<Placemark>
<name><![CDATA[Partner]]></name>
<description><![CDATA[BSSID: <b>42501_13111_496642</b><br/>Frequency:<b>0</b><br/>Date: <b>2017-10-27 16:15:37</b>]]></description><styleUrl>#green</styleUrl>
<TimeStamp>
<when>2017-10-27T16:15:37</when>
</TimeStamp>
<Point>
<coordinates>34.81237,32.16881</coordinates>
</Point>
</Placemark>
<Placemark>
<name><![CDATA[Nomi Fix WIFI]]></name>
<description><![CDATA[BSSID: <b>c4:6e:1f:30:2b:7c</b><br/>Frequency:<b>1</b><br/>Date: <b>2017-10-27 16:15:52</b>]]></description><styleUrl>#green</styleUrl>
<TimeStamp>
<when>2017-10-27T16:15:52</when>
</TimeStamp>
<Point>
<coordinates>34.81097,32.168743</coordinates>
</Point>
</Placemark>
<Placemark>
<name><![CDATA[HOTBOX111]]></name>
<description><![CDATA[BSSID: <b>90:f6:52:28:38:19</b><br/>Frequency:<b>11</b><br/>Date: <b>2017-10-27 16:15:52</b>]]></description><styleUrl>#green</styleUrl>
<TimeStamp>
<when>2017-10-27T16:15:52</when>
</TimeStamp>
<Point>
<coordinates>34.81097,32.168743</coordinates>
</Point>
</Placemark>
<Placemark>
<name><![CDATA[NGOGA]]></name>
<description><![CDATA[BSSID: <b>30:b5:c2:fe:aa:56</b><br/>Frequency:<b>6</b><br/>Date: <b>2017-10-27 16:15:52</b>]]></description><styleUrl>#green</styleUrl>
<TimeStamp>
<when>2017-10-27T16:15:52</when>
</TimeStamp>
<Point>
<coordinates>34.81097,32.168743</coordinates>
</Point>
</Placemark>
<Placemark>
<name><![CDATA[osnatg370]]></name>
<description><![CDATA[BSSID: <b>c0:ac:54:f5:7b:a7</b><br/>Frequency:<b>11</b><br/>Date: <b>2017-10-27 16:15:52</b>]]></description><styleUrl>#green</styleUrl>
<TimeStamp>
<when>2017-10-27T16:15:52</when>
</TimeStamp>
<Point>
<coordinates>34.81097,32.168743</coordinates>
</Point>
</Placemark>
<Placemark>
<name><![CDATA[Lubelsky]]></name>
<description><![CDATA[BSSID: <b>c0:4a:00:ba:e8:f6</b><br/>Frequency:<b>13</b><br/>Date: <b>2017-10-27 16:15:52</b>]]></description><styleUrl>#green</styleUrl>
<TimeStamp>
<when>2017-10-27T16:15:52</when>
</TimeStamp>
<Point>
<coordinates>34.81097,32.168743</coordinates>
</Point>
</Placemark>
<Placemark>
<name><![CDATA[Shaul1]]></name>
<description><![CDATA[BSSID: <b>fc:b4:e6:1e:0a:78</b><br/>Frequency:<b>11</b><br/>Date: <b>2017-10-27 16:15:52</b>]]></description><styleUrl>#green</styleUrl>
<TimeStamp>
<when>2017-10-27T16:15:52</when>
</TimeStamp>
<Point>
<coordinates>34.81097,32.168743</coordinates>
</Point>
</Placemark>
<Placemark>
<name><![CDATA[GUYFI]]></name>
<description><![CDATA[BSSID: <b>c8:60:00:b1:d4:50</b><br/>Frequency:<b>3</b><br/>Date: <b>2017-10-27 16:16:07</b>]]></description><styleUrl>#green</styleUrl>
<TimeStamp>
<when>2017-10-27T16:16:07</when>
</TimeStamp>
<Point>
<coordinates>34.8104,32.16829</coordinates>
</Point>
</Placemark>
<Placemark>
<name><![CDATA[Rina]]></name>
<description><![CDATA[BSSID: <b>00:26:5a:77:8c:db</b><br/>Frequency:<b>6</b><br/>Date: <b>2017-10-27 16:16:07</b>]]></description><styleUrl>#green</styleUrl>
<TimeStamp>
<when>2017-10-27T16:16:07</when>
</TimeStamp>
<Point>
<coordinates>34.8104,32.16829</coordinates>
</Point>
</Placemark>
<Placemark>
<name><![CDATA[BARON WIFI 2.4]]></name>
<description><![CDATA[BSSID: <b>60:e3:27:bf:a1:a5</b><br/>Frequency:<b>11</b><br/>Date: <b>2017-10-27 16:16:07</b>]]></description><styleUrl>#green</styleUrl>
<TimeStamp>
<when>2017-10-27T16:16:07</when>
</TimeStamp>
<Point>
<coordinates>34.8104,32.16829</coordinates>
</Point>
</Placemark>
<Placemark>
<name><![CDATA[simon]]></name>
<description><![CDATA[BSSID: <b>e4:6f:13:73:0a:c2</b><br/>Frequency:<b>8</b><br/>Date: <b>2017-10-27 16:16:07</b>]]></description><styleUrl>#green</styleUrl>
<TimeStamp>
<when>2017-10-27T16:16:07</when>
</TimeStamp>
<Point>
<coordinates>34.8104,32.16829</coordinates>
</Point>
</Placemark>
<Placemark>
<name><![CDATA[Levy]]></name>
<description><![CDATA[BSSID: <b>d8:fb:5e:f5:82:9a</b><br/>Frequency:<b>10</b><br/>Date: <b>2017-10-27 16:16:07</b>]]></description><styleUrl>#green</styleUrl>
<TimeStamp>
<when>2017-10-27T16:16:07</when>
</TimeStamp>
<Point>
<coordinates>34.8104,32.16829</coordinates>
</Point>
</Placemark>
<Placemark>
<name><![CDATA[kessel_2]]></name>
<description><![CDATA[BSSID: <b>90:ef:68:30:6b:69</b><br/>Frequency:<b>5</b><br/>Date: <b>2017-10-27 16:16:09</b>]]></description><styleUrl>#green</styleUrl>
<TimeStamp>
<when>2017-10-27T16:16:09</when>
</TimeStamp>
<Point>
<coordinates>34.8103,32.168083</coordinates>
</Point>
</Placemark>
<Placemark>
<name><![CDATA[888Corp]]></name>
<description><![CDATA[BSSID: <b>0a:8d:db:6e:71:13</b><br/>Frequency:<b>1</b><br/>Date: <b>2017-10-27 16:16:09</b>]]></description><styleUrl>#green</styleUrl>
<TimeStamp>
<when>2017-10-27T16:16:09</when>
</TimeStamp>
<Point>
<coordinates>34.8103,32.168083</coordinates>
</Point>
</Placemark>
<Placemark>
<name><![CDATA[888Free]]></name>
<description><![CDATA[BSSID: <b>06:8d:db:6e:71:13</b><br/>Frequency:<b>1</b><br/>Date: <b>2017-10-27 16:16:09</b>]]></description><styleUrl>#green</styleUrl>
<TimeStamp>
<when>2017-10-27T16:16:09</when>
</TimeStamp>
<Point>
<coordinates>34.8103,32.168083</coordinates>
</Point>
</Placemark>
<Placemark>
<name><![CDATA[DIRECT-a8-HP M477 LaserJet]]></name>
<description><![CDATA[BSSID: <b>aa:6b:ad:04:c6:a8</b><br/>Frequency:<b>6</b><br/>Date: <b>2017-10-27 16:16:26</b>]]></description><styleUrl>#green</styleUrl>
<TimeStamp>
<when>2017-10-27T16:16:26</when>
</TimeStamp>
<Point>
<coordinates>34.810116,32.167988</coordinates>
</Point>
</Placemark>
<Placemark>
<name><![CDATA[Mouly]]></name>
<description><![CDATA[BSSID: <b>7c:b7:33:2e:76:73</b><br/>Frequency:<b>11</b><br/>Date: <b>2017-10-27 16:16:26</b>]]></description><styleUrl>#green</styleUrl>
<TimeStamp>
<when>2017-10-27T16:16:26</when>
</TimeStamp>
<Point>
<coordinates>34.810116,32.167988</coordinates>
</Point>
</Placemark>
<Placemark>
<name><![CDATA[888Guest]]></name>
<description><![CDATA[BSSID: <b>02:8d:db:6e:71:bf</b><br/>Frequency:<b>1</b><br/>Date: <b>2017-10-27 16:16:26</b>]]></description><styleUrl>#green</styleUrl>
<TimeStamp>
<when>2017-10-27T16:16:26</when>
</TimeStamp>
<Point>
<coordinates>34.810116,32.167988</coordinates>
</Point>
</Placemark>
<Placemark>
<name><![CDATA[888Corp]]></name>
<description><![CDATA[BSSID: <b>0a:8d:db:6e:71:bf</b><br/>Frequency:<b>1</b><br/>Date: <b>2017-10-27 16:16:26</b>]]></description><styleUrl>#green</styleUrl>
<TimeStamp>
<when>2017-10-27T16:16:26</when>
</TimeStamp>
<Point>
<coordinates>34.810116,32.167988</coordinates>
</Point>
</Placemark>
<Placemark>
<name><![CDATA[smartsell]]></name>
<description><![CDATA[BSSID: <b>78:e8:b6:69:2c:91</b><br/>Frequency:<b>1</b><br/>Date: <b>2017-10-27 16:16:26</b>]]></description><styleUrl>#green</styleUrl>
<TimeStamp>
<when>2017-10-27T16:16:26</when>
</TimeStamp>
<Point>
<coordinates>34.810116,32.167988</coordinates>
</Point>
</Placemark>
<Placemark>
<name><![CDATA[]]></name>
<description><![CDATA[BSSID: <b>06:8d:db:6e:71:be</b><br/>Frequency:<b>11</b><br/>Date: <b>2017-10-27 16:16:41</b>]]></description><styleUrl>#green</styleUrl>
<TimeStamp>
<when>2017-10-27T16:16:41</when>
</TimeStamp>
<Point>
<coordinates>34.80979,32.167553</coordinates>
</Point>
</Placemark>
<Placemark>
<name><![CDATA[888Free]]></name>
<description><![CDATA[BSSID: <b>06:8d:db:6e:71:26</b><br/>Frequency:<b>6</b><br/>Date: <b>2017-10-27 16:17:17</b>]]></description><styleUrl>#green</styleUrl>
<TimeStamp>
<when>2017-10-27T16:17:17</when>
</TimeStamp>
<Point>
<coordinates>34.809795,32.167553</coordinates>
</Point>
</Placemark>
<Placemark>
<name><![CDATA[MOULY MAISON]]></name>
<description><![CDATA[BSSID: <b>00:78:9e:fa:15:91</b><br/>Frequency:<b>1</b><br/>Date: <b>2017-10-27 16:18:17</b>]]></description><styleUrl>#green</styleUrl>
<TimeStamp>
<when>2017-10-27T16:18:17</when>
</TimeStamp>
<Point>
<coordinates>34.8098,32.167553</coordinates>
</Point>
</Placemark>
<Placemark>
<name><![CDATA[888Free]]></name>
<description><![CDATA[BSSID: <b>06:8d:db:6e:71:bf</b><br/>Frequency:<b>1</b><br/>Date: <b>2017-10-27 16:18:22</b>]]></description><styleUrl>#green</styleUrl>
<TimeStamp>
<when>2017-10-27T16:18:22</when>
</TimeStamp>
<Point>
<coordinates>34.809803,32.167553</coordinates>
</Point>
</Placemark>
<Placemark>
<name><![CDATA[888Free]]></name>
<description><![CDATA[BSSID: <b>06:8d:db:6e:71:6d</b><br/>Frequency:<b>1</b><br/>Date: <b>2017-10-27 16:18:22</b>]]></description><styleUrl>#green</styleUrl>
<TimeStamp>
<when>2017-10-27T16:18:22</when>
</TimeStamp>
<Point>
<coordinates>34.809803,32.167553</coordinates>
</Point>
</Placemark>
<Placemark>
<name><![CDATA[KaymeraGuest]]></name>
<description><![CDATA[BSSID: <b>00:f6:63:15:58:82</b><br/>Frequency:<b>1</b><br/>Date: <b>2017-10-27 16:18:22</b>]]></description><styleUrl>#green</styleUrl>
<TimeStamp>
<when>2017-10-27T16:18:22</when>
</TimeStamp>
<Point>
<coordinates>34.809803,32.167553</coordinates>
</Point>
</Placemark>
<Placemark>
<name><![CDATA[RS_GUEST_5G]]></name>
<description><![CDATA[BSSID: <b>ec:08:6b:38:0d:dc</b><br/>Frequency:<b>48</b><br/>Date: <b>2017-10-27 16:18:37</b>]]></description><styleUrl>#green</styleUrl>
<TimeStamp>
<when>2017-10-27T16:18:37</when>
</TimeStamp>
<Point>
<coordinates>34.80974,32.1675</coordinates>
</Point>
</Placemark>
<Placemark>
<name><![CDATA[RS_GUEST]]></name>
<description><![CDATA[BSSID: <b>ec:08:6b:38:0d:dd</b><br/>Frequency:<b>13</b><br/>Date: <b>2017-10-27 16:18:39</b>]]></description><styleUrl>#green</styleUrl>
<TimeStamp>
<when>2017-10-27T16:18:39</when>
</TimeStamp>
<Point>
<coordinates>34.809658,32.16743</coordinates>
</Point>
</Placemark>
<Placemark>
<name><![CDATA[888Corp]]></name>
<description><![CDATA[BSSID: <b>0a:8d:db:6e:71:c1</b><br/>Frequency:<b>11</b><br/>Date: <b>2017-10-27 16:18:39</b>]]></description><styleUrl>#green</styleUrl>
<TimeStamp>
<when>2017-10-27T16:18:39</when>
</TimeStamp>
<Point>
<coordinates>34.809658,32.16743</coordinates>
</Point>
</Placemark>
<Placemark>
<name><![CDATA[888Guest]]></name>
<description><![CDATA[BSSID: <b>02:8d:db:6e:71:c1</b><br/>Frequency:<b>11</b><br/>Date: <b>2017-10-27 16:18:39</b>]]></description><styleUrl>#green</styleUrl>
<TimeStamp>
<when>2017-10-27T16:18:39</when>
</TimeStamp>
<Point>
<coordinates>34.809658,32.16743</coordinates>
</Point>
</Placemark>
<Placemark>
<name><![CDATA[888Corp]]></name>
<description><![CDATA[BSSID: <b>0a:8d:cb:6e:71:c1</b><br/>Frequency:<b>36</b><br/>Date: <b>2017-10-27 16:18:39</b>]]></description><styleUrl>#green</styleUrl>
<TimeStamp>
<when>2017-10-27T16:18:39</when>
</TimeStamp>
<Point>
<coordinates>34.809658,32.16743</coordinates>
</Point>
</Placemark>
<Placemark>
<name><![CDATA[888Guest]]></name>
<description><![CDATA[BSSID: <b>02:8d:db:6e:71:6d</b><br/>Frequency:<b>1</b><br/>Date: <b>2017-10-27 16:18:47</b>]]></description><styleUrl>#green</styleUrl>
<TimeStamp>
<when>2017-10-27T16:18:47</when>
</TimeStamp>
<Point>
<coordinates>34.80909,32.16701</coordinates>
</Point>
</Placemark>
<Placemark>
<name><![CDATA[888Corp]]></name>
<description><![CDATA[BSSID: <b>0a:8d:db:6e:71:be</b><br/>Frequency:<b>11</b><br/>Date: <b>2017-10-27 16:18:47</b>]]></description><styleUrl>#green</styleUrl>
<TimeStamp>
<when>2017-10-27T16:18:47</when>
</TimeStamp>
<Point>
<coordinates>34.80909,32.16701</coordinates>
</Point>
</Placemark>
<Placemark>
<name><![CDATA[888Corp]]></name>
<description><![CDATA[BSSID: <b>0a:8d:cb:6e:71:bf</b><br/>Frequency:<b>44</b><br/>Date: <b>2017-10-27 16:18:47</b>]]></description><styleUrl>#green</styleUrl>
<TimeStamp>
<when>2017-10-27T16:18:47</when>
</TimeStamp>
<Point>
<coordinates>34.80909,32.16701</coordinates>
</Point>
</Placemark>
<Placemark>
<name><![CDATA[888Guest]]></name>
<description><![CDATA[BSSID: <b>02:8d:db:6e:71:be</b><br/>Frequency:<b>11</b><br/>Date: <b>2017-10-27 16:18:47</b>]]></description><styleUrl>#green</styleUrl>
<TimeStamp>
<when>2017-10-27T16:18:47</when>
</TimeStamp>
<Point>
<coordinates>34.80909,32.16701</coordinates>
</Point>
</Placemark>
<Placemark>
<name><![CDATA[HRZBOUTIKUE]]></name>
<description><![CDATA[BSSID: <b>14:ae:db:a3:90:15</b><br/>Frequency:<b>11</b><br/>Date: <b>2017-10-27 16:18:49</b>]]></description><styleUrl>#green</styleUrl>
<TimeStamp>
<when>2017-10-27T16:18:49</when>
</TimeStamp>
<Point>
<coordinates>34.808975,32.16692</coordinates>
</Point>
</Placemark>
<Placemark>
<name><![CDATA[Bezeq2.4]]></name>
<description><![CDATA[BSSID: <b>14:ae:db:b3:7b:65</b><br/>Frequency:<b>6</b><br/>Date: <b>2017-10-27 16:18:52</b>]]></description><styleUrl>#green</styleUrl>
<TimeStamp>
<when>2017-10-27T16:18:52</when>
</TimeStamp>
<Point>
<coordinates>34.8089,32.166866</coordinates>
</Point>
</Placemark>
<Placemark>
<name><![CDATA[HOTFiber-2017]]></name>
<description><![CDATA[BSSID: <b>18:1e:78:86:00:63</b><br/>Frequency:<b>1</b><br/>Date: <b>2017-10-27 16:18:59</b>]]></description><styleUrl>#green</styleUrl>
<TimeStamp>
<when>2017-10-27T16:18:59</when>
</TimeStamp>
<Point>
<coordinates>34.808674,32.16684</coordinates>
</Point>
</Placemark>
<Placemark>
<name><![CDATA[BlueSnap-Guest-2.4GHz]]></name>
<description><![CDATA[BSSID: <b>00:02:6f:bb:fd:ac</b><br/>Frequency:<b>1</b><br/>Date: <b>2017-10-27 16:18:59</b>]]></description><styleUrl>#green</styleUrl>
<TimeStamp>
<when>2017-10-27T16:18:59</when>
</TimeStamp>
<Point>
<coordinates>34.808674,32.16684</coordinates>
</Point>
</Placemark>
<Placemark>
<name><![CDATA[HOTFiber-2017]]></name>
<description><![CDATA[BSSID: <b>08:6a:0a:37:66:66</b><br/>Frequency:<b>1</b><br/>Date: <b>2017-10-27 16:18:59</b>]]></description><styleUrl>#green</styleUrl>
<TimeStamp>
<when>2017-10-27T16:18:59</when>
</TimeStamp>
<Point>
<coordinates>34.808674,32.16684</coordinates>
</Point>
</Placemark>
<Placemark>
<name><![CDATA[ASUS]]></name>
<description><![CDATA[BSSID: <b>d0:17:c2:60:e7:38</b><br/>Frequency:<b>3</b><br/>Date: <b>2017-10-27 16:18:59</b>]]></description><styleUrl>#green</styleUrl>
<TimeStamp>
<when>2017-10-27T16:18:59</when>
</TimeStamp>
<Point>
<coordinates>34.808674,32.16684</coordinates>
</Point>
</Placemark>
<Placemark>
<name><![CDATA[888Free]]></name>
<description><![CDATA[BSSID: <b>06:8d:db:6e:71:c1</b><br/>Frequency:<b>11</b><br/>Date: <b>2017-10-27 16:18:59</b>]]></description><styleUrl>#green</styleUrl>
<TimeStamp>
<when>2017-10-27T16:18:59</when>
</TimeStamp>
<Point>
<coordinates>34.808674,32.16684</coordinates>
</Point>
</Placemark>
<Placemark>
<name><![CDATA[NIZZA333]]></name>
<description><![CDATA[BSSID: <b>c0:ac:54:f5:e9:c8</b><br/>Frequency:<b>11</b><br/>Date: <b>2017-10-27 16:19:07</b>]]></description><styleUrl>#green</styleUrl>
<TimeStamp>
<when>2017-10-27T16:19:07</when>
</TimeStamp>
<Point>
<coordinates>34.80766,32.167217</coordinates>
</Point>
</Placemark>
<Placemark>
<name><![CDATA[Guest Neetwork MM]]></name>
<description><![CDATA[BSSID: <b>94:f6:65:1b:b2:28</b><br/>Frequency:<b>5</b><br/>Date: <b>2017-10-27 16:19:09</b>]]></description><styleUrl>#green</styleUrl>
<TimeStamp>
<when>2017-10-27T16:19:09</when>
</TimeStamp>
<Point>
<coordinates>34.807365,32.167324</coordinates>
</Point>
</Placemark>
<Placemark>
<name><![CDATA[edimax_repeater]]></name>
<description><![CDATA[BSSID: <b>74:da:38:50:ce:4c</b><br/>Frequency:<b>2</b><br/>Date: <b>2017-10-27 16:19:09</b>]]></description><styleUrl>#green</styleUrl>
<TimeStamp>
<when>2017-10-27T16:19:09</when>
</TimeStamp>
<Point>
<coordinates>34.807365,32.167324</coordinates>
</Point>
</Placemark>
<Placemark>
<name><![CDATA[Efrat Networks MM]]></name>
<description><![CDATA[BSSID: <b>94:f6:65:5b:b2:28</b><br/>Frequency:<b>5</b><br/>Date: <b>2017-10-27 16:19:12</b>]]></description><styleUrl>#green</styleUrl>
<TimeStamp>
<when>2017-10-27T16:19:12</when>
</TimeStamp>
<Point>
<coordinates>34.806976,32.16747</coordinates>
</Point>
</Placemark>
<Placemark>
<name><![CDATA[Rabia]]></name>
<description><![CDATA[BSSID: <b>30:b5:c2:bd:52:40</b><br/>Frequency:<b>6</b><br/>Date: <b>2017-10-27 16:19:15</b>]]></description><styleUrl>#green</styleUrl>
<TimeStamp>
<when>2017-10-27T16:19:15</when>
</TimeStamp>
<Point>
<coordinates>34.806618,32.1676</coordinates>
</Point>
</Placemark>
<Placemark>
<name><![CDATA[Vexlerar_2EX]]></name>
<description><![CDATA[BSSID: <b>74:da:38:cc:d8:80</b><br/>Frequency:<b>9</b><br/>Date: <b>2017-10-27 16:19:15</b>]]></description><styleUrl>#green</styleUrl>
<TimeStamp>
<when>2017-10-27T16:19:15</when>
</TimeStamp>
<Point>
<coordinates>34.806618,32.1676</coordinates>
</Point>
</Placemark>
<Placemark>
<name><![CDATA[Rainbow Medical]]></name>
<description><![CDATA[BSSID: <b>90:6c:ac:f3:6a:69</b><br/>Frequency:<b>5</b><br/>Date: <b>2017-10-27 16:19:15</b>]]></description><styleUrl>#green</styleUrl>
<TimeStamp>
<when>2017-10-27T16:19:15</when>
</TimeStamp>
<Point>
<coordinates>34.806618,32.1676</coordinates>
</Point>
</Placemark>
<Placemark>
<name><![CDATA[ApartmentD]]></name>
<description><![CDATA[BSSID: <b>c0:ff:d4:d1:e3:20</b><br/>Frequency:<b>11</b><br/>Date: <b>2017-10-27 16:19:22</b>]]></description><styleUrl>#green</styleUrl>
<TimeStamp>
<when>2017-10-27T16:19:22</when>
</TimeStamp>
<Point>
<coordinates>34.806164,32.16779</coordinates>
</Point>
</Placemark>
<Placemark>
<name><![CDATA[ZVIN]]></name>
<description><![CDATA[BSSID: <b>4c:60:de:4c:5d:44</b><br/>Frequency:<b>11</b><br/>Date: <b>2017-10-27 16:19:22</b>]]></description><styleUrl>#green</styleUrl>
<TimeStamp>
<when>2017-10-27T16:19:22</when>
</TimeStamp>
<Point>
<coordinates>34.806164,32.16779</coordinates>
</Point>
</Placemark>
<Placemark>
<name><![CDATA[P-HOME]]></name>
<description><![CDATA[BSSID: <b>2c:5d:93:11:60:b8</b><br/>Frequency:<b>12</b><br/>Date: <b>2017-10-27 16:19:30</b>]]></description><styleUrl>#green</styleUrl>
<TimeStamp>
<when>2017-10-27T16:19:30</when>
</TimeStamp>
<Point>
<coordinates>34.806156,32.167805</coordinates>
</Point>
</Placemark>
<Placemark>
<name><![CDATA[Annatel_3372.5]]></name>
<description><![CDATA[BSSID: <b>74:da:38:a9:0c:43</b><br/>Frequency:<b>44</b><br/>Date: <b>2017-10-27 16:19:30</b>]]></description><styleUrl>#green</styleUrl>
<TimeStamp>
<when>2017-10-27T16:19:30</when>
</TimeStamp>
<Point>
<coordinates>34.806156,32.167805</coordinates>
</Point>
</Placemark>
<Placemark>
<name><![CDATA[Home]]></name>
<description><![CDATA[BSSID: <b>14:ae:db:53:0c:2d</b><br/>Frequency:<b>6</b><br/>Date: <b>2017-10-27 16:19:37</b>]]></description><styleUrl>#green</styleUrl>
<TimeStamp>
<when>2017-10-27T16:19:37</when>
</TimeStamp>
<Point>
<coordinates>34.805904,32.167946</coordinates>
</Point>
</Placemark>
<Placemark>
<name><![CDATA[DIRECT-52-HP DeskJet 3830 series]]></name>
<description><![CDATA[BSSID: <b>94:57:a5:4d:eb:8b</b><br/>Frequency:<b>6</b><br/>Date: <b>2017-10-27 16:19:37</b>]]></description><styleUrl>#green</styleUrl>
<TimeStamp>
<when>2017-10-27T16:19:37</when>
</TimeStamp>
<Point>
<coordinates>34.805904,32.167946</coordinates>
</Point>
</Placemark>
<Placemark>
<name><![CDATA[gabriel]]></name>
<description><![CDATA[BSSID: <b>90:8d:78:50:6a:12</b><br/>Frequency:<b>11</b><br/>Date: <b>2017-10-27 16:19:40</b>]]></description><styleUrl>#green</styleUrl>
<TimeStamp>
<when>2017-10-27T16:19:40</when>
</TimeStamp>
<Point>
<coordinates>34.80557,32.167995</coordinates>
</Point>
</Placemark>
<Placemark>
<name><![CDATA[BezeqFree]]></name>
<description><![CDATA[BSSID: <b>62:8d:78:50:6a:13</b><br/>Frequency:<b>11</b><br/>Date: <b>2017-10-27 16:19:40</b>]]></description><styleUrl>#green</styleUrl>
<TimeStamp>
<when>2017-10-27T16:19:40</when>
</TimeStamp>
<Point>
<coordinates>34.80557,32.167995</coordinates>
</Point>
</Placemark>
<Placemark>
<name><![CDATA[Annatel_3372]]></name>
<description><![CDATA[BSSID: <b>74:da:38:a9:0c:3e</b><br/>Frequency:<b>2</b><br/>Date: <b>2017-10-27 16:19:43</b>]]></description><styleUrl>#green</styleUrl>
<TimeStamp>
<when>2017-10-27T16:19:43</when>
</TimeStamp>
<Point>
<coordinates>34.80516,32.168053</coordinates>
</Point>
</Placemark>
<Placemark>
<name><![CDATA[Partner-4G-86E5]]></name>
<description><![CDATA[BSSID: <b>b0:89:00:d8:86:e5</b><br/>Frequency:<b>10</b><br/>Date: <b>2017-10-27 16:19:43</b>]]></description><styleUrl>#green</styleUrl>
<TimeStamp>
<when>2017-10-27T16:19:43</when>
</TimeStamp>
<Point>
<coordinates>34.80516,32.168053</coordinates>
</Point>
</Placemark>
<Placemark>
<name><![CDATA[irit]]></name>
<description><![CDATA[BSSID: <b>c0:ac:54:f7:82:21</b><br/>Frequency:<b>11</b><br/>Date: <b>2017-10-27 16:19:50</b>]]></description><styleUrl>#green</styleUrl>
<TimeStamp>
<when>2017-10-27T16:19:50</when>
</TimeStamp>
<Point>
<coordinates>34.804176,32.168148</coordinates>
</Point>
</Placemark>
<Placemark>
<name><![CDATA[BEZEQINT-6D41]]></name>
<description><![CDATA[BSSID: <b>14:ae:db:cb:6d:45</b><br/>Frequency:<b>1</b><br/>Date: <b>2017-10-27 16:19:50</b>]]></description><styleUrl>#green</styleUrl>
<TimeStamp>
<when>2017-10-27T16:19:50</when>
</TimeStamp>
<Point>
<coordinates>34.804176,32.168148</coordinates>
</Point>
</Placemark>
<Placemark>
<name><![CDATA[HP-Print-36-Officejet Pro 6830]]></name>
<description><![CDATA[BSSID: <b>dc:4a:3e:be:0a:36</b><br/>Frequency:<b>11</b><br/>Date: <b>2017-10-27 16:19:50</b>]]></description><styleUrl>#green</styleUrl>
<TimeStamp>
<when>2017-10-27T16:19:50</when>
</TimeStamp>
<Point>
<coordinates>34.804176,32.168148</coordinates>
</Point>
</Placemark>
<Placemark>
<name><![CDATA[Tamara]]></name>
<description><![CDATA[BSSID: <b>14:ae:db:b0:41:25</b><br/>Frequency:<b>11</b><br/>Date: <b>2017-10-27 16:19:50</b>]]></description><styleUrl>#green</styleUrl>
<TimeStamp>
<when>2017-10-27T16:19:50</when>
</TimeStamp>
<Point>
<coordinates>34.804176,32.168148</coordinates>
</Point>
</Placemark>
<Placemark>
<name><![CDATA[zina 1932]]></name>
<description><![CDATA[BSSID: <b>c0:ac:54:f8:b3:93</b><br/>Frequency:<b>11</b><br/>Date: <b>2017-10-27 16:19:50</b>]]></description><styleUrl>#green</styleUrl>
<TimeStamp>
<when>2017-10-27T16:19:50</when>
</TimeStamp>
<Point>
<coordinates>34.804176,32.168148</coordinates>
</Point>
</Placemark>
<Placemark>
<name><![CDATA[Grosman_sec]]></name>
<description><![CDATA[BSSID: <b>c4:a8:1d:13:61:b5</b><br/>Frequency:<b>1</b><br/>Date: <b>2017-10-27 16:19:50</b>]]></description><styleUrl>#green</styleUrl>
<TimeStamp>
<when>2017-10-27T16:19:50</when>
</TimeStamp>
<Point>
<coordinates>34.804176,32.168148</coordinates>
</Point>
</Placemark>
<Placemark>
<name><![CDATA[ida]]></name>
<description><![CDATA[BSSID: <b>c0:c1:c0:ce:4d:06</b><br/>Frequency:<b>11</b><br/>Date: <b>2017-10-27 16:19:50</b>]]></description><styleUrl>#green</styleUrl>
<TimeStamp>
<when>2017-10-27T16:19:50</when>
</TimeStamp>
<Point>
<coordinates>34.804176,32.168148</coordinates>
</Point>
</Placemark>
<Placemark>
<name><![CDATA[Partner]]></name>
<description><![CDATA[BSSID: <b>42501_13111_496641</b><br/>Frequency:<b>0</b><br/>Date: <b>2017-10-27 16:19:51</b>]]></description><styleUrl>#green</styleUrl>
<TimeStamp>
<when>2017-10-27T16:19:51</when>
</TimeStamp>
<Point>
<coordinates>34.80405,32.168167</coordinates>
</Point>
</Placemark>
<Placemark>
<name><![CDATA[Biana_n]]></name>
<description><![CDATA[BSSID: <b>14:ae:db:b2:8e:75</b><br/>Frequency:<b>11</b><br/>Date: <b>2017-10-27 16:19:52</b>]]></description><styleUrl>#green</styleUrl>
<TimeStamp>
<when>2017-10-27T16:19:52</when>
</TimeStamp>
<Point>
<coordinates>34.803936,32.168182</coordinates>
</Point>
</Placemark>
<Placemark>
<name><![CDATA[netbo1]]></name>
<description><![CDATA[BSSID: <b>d0:d4:12:68:0a:0a</b><br/>Frequency:<b>11</b><br/>Date: <b>2017-10-27 16:19:52</b>]]></description><styleUrl>#green</styleUrl>
<TimeStamp>
<when>2017-10-27T16:19:52</when>
</TimeStamp>
<Point>
<coordinates>34.803936,32.168182</coordinates>
</Point>
</Placemark>
<Placemark>
<name><![CDATA[DIRECT-06-HP OfficeJet Pro 8710]]></name>
<description><![CDATA[BSSID: <b>70:5a:0f:a2:3f:61</b><br/>Frequency:<b>6</b><br/>Date: <b>2017-10-27 16:20:00</b>]]></description><styleUrl>#green</styleUrl>
<TimeStamp>
<when>2017-10-27T16:20:00</when>
</TimeStamp>
<Point>
<coordinates>34.803577,32.168232</coordinates>
</Point>
</Placemark>
<Placemark>
<name><![CDATA[HOT123]]></name>
<description><![CDATA[BSSID: <b>c0:ac:54:f6:c5:4b</b><br/>Frequency:<b>1</b><br/>Date: <b>2017-10-27 16:20:00</b>]]></description><styleUrl>#green</styleUrl>
<TimeStamp>
<when>2017-10-27T16:20:00</when>
</TimeStamp>
<Point>
<coordinates>34.803577,32.168232</coordinates>
</Point>
</Placemark>
<Placemark>
<name><![CDATA[HOTBOX]]></name>
<description><![CDATA[BSSID: <b>7c:03:4c:fe:ba:1b</b><br/>Frequency:<b>1</b><br/>Date: <b>2017-10-27 16:20:21</b>]]></description><styleUrl>#green</styleUrl>
<TimeStamp>
<when>2017-10-27T16:20:21</when>
</TimeStamp>
<Point>
<coordinates>34.803432,32.168243</coordinates>
</Point>
</Placemark>
<Placemark>
<name><![CDATA[tania_2.4]]></name>
<description><![CDATA[BSSID: <b>70:62:b8:31:1d:80</b><br/>Frequency:<b>11</b><br/>Date: <b>2017-10-27 16:20:21</b>]]></description><styleUrl>#green</styleUrl>
<TimeStamp>
<when>2017-10-27T16:20:21</when>
</TimeStamp>
<Point>
<coordinates>34.803432,32.168243</coordinates>
</Point>
</Placemark>
<Placemark>
<name><![CDATA[NIPPON_8102]]></name>
<description><![CDATA[BSSID: <b>08:97:58:33:74:72</b><br/>Frequency:<b>2</b><br/>Date: <b>2017-10-27 16:20:22</b>]]></description><styleUrl>#green</styleUrl>
<TimeStamp>
<when>2017-10-27T16:20:22</when>
</TimeStamp>
<Point>
<coordinates>34.803364,32.168247</coordinates>
</Point>
</Placemark>
<Placemark>
<name><![CDATA[vue sur mer_2.4]]></name>
<description><![CDATA[BSSID: <b>a4:2b:8c:98:db:d2</b><br/>Frequency:<b>1</b><br/>Date: <b>2017-10-27 16:20:22</b>]]></description><styleUrl>#green</styleUrl>
<TimeStamp>
<when>2017-10-27T16:20:22</when>
</TimeStamp>
<Point>
<coordinates>34.803364,32.168247</coordinates>
</Point>
</Placemark>
<Placemark>
<name><![CDATA[bz46564990]]></name>
<description><![CDATA[BSSID: <b>48:ee:0c:3a:19:c7</b><br/>Frequency:<b>10</b><br/>Date: <b>2017-10-27 16:20:22</b>]]></description><styleUrl>#green</styleUrl>
<TimeStamp>
<when>2017-10-27T16:20:22</when>
</TimeStamp>
<Point>
<coordinates>34.803364,32.168247</coordinates>
</Point>
</Placemark>
<Placemark>
<name><![CDATA[Consm]]></name>
<description><![CDATA[BSSID: <b>50:c7:bf:7d:66:22</b><br/>Frequency:<b>5</b><br/>Date: <b>2017-10-27 16:20:22</b>]]></description><styleUrl>#green</styleUrl>
<TimeStamp>
<when>2017-10-27T16:20:22</when>
</TimeStamp>
<Point>
<coordinates>34.803364,32.168247</coordinates>
</Point>
</Placemark>
<Placemark>
<name><![CDATA[Student]]></name>
<description><![CDATA[BSSID: <b>46:d9:e7:04:ff:09</b><br/>Frequency:<b>6</b><br/>Date: <b>2017-10-27 16:20:31</b>]]></description><styleUrl>#green</styleUrl>
<TimeStamp>
<when>2017-10-27T16:20:31</when>
</TimeStamp>
<Point>
<coordinates>34.802654,32.16828</coordinates>
</Point>
</Placemark>
<Placemark>
<name><![CDATA[770]]></name>
<description><![CDATA[BSSID: <b>ec:22:80:b3:2e:10</b><br/>Frequency:<b>6</b><br/>Date: <b>2017-10-27 16:20:31</b>]]></description><styleUrl>#green</styleUrl>
<TimeStamp>
<when>2017-10-27T16:20:31</when>
</TimeStamp>
<Point>
<coordinates>34.802654,32.16828</coordinates>
</Point>
</Placemark>
<Placemark>
<name><![CDATA[Student]]></name>
<description><![CDATA[BSSID: <b>46:d9:e7:04:ff:83</b><br/>Frequency:<b>11</b><br/>Date: <b>2017-10-27 16:20:31</b>]]></description><styleUrl>#green</styleUrl>
<TimeStamp>
<when>2017-10-27T16:20:31</when>
</TimeStamp>
<Point>
<coordinates>34.802654,32.16828</coordinates>
</Point>
</Placemark>
<Placemark>
<name><![CDATA[smadarwifi]]></name>
<description><![CDATA[BSSID: <b>44:d9:e7:04:ff:09</b><br/>Frequency:<b>6</b><br/>Date: <b>2017-10-27 16:20:31</b>]]></description><styleUrl>#green</styleUrl>
<TimeStamp>
<when>2017-10-27T16:20:31</when>
</TimeStamp>
<Point>
<coordinates>34.802654,32.16828</coordinates>
</Point>
</Placemark>
<Placemark>
<name><![CDATA[770]]></name>
<description><![CDATA[BSSID: <b>14:ae:db:b1:ac:0d</b><br/>Frequency:<b>11</b><br/>Date: <b>2017-10-27 16:20:31</b>]]></description><styleUrl>#green</styleUrl>
<TimeStamp>
<when>2017-10-27T16:20:31</when>
</TimeStamp>
<Point>
<coordinates>34.802654,32.16828</coordinates>
</Point>
</Placemark>
<Placemark>
<name><![CDATA[hagit_5]]></name>
<description><![CDATA[BSSID: <b>6c:b0:ce:33:a4:d6</b><br/>Frequency:<b>40</b><br/>Date: <b>2017-10-27 16:20:31</b>]]></description><styleUrl>#green</styleUrl>
<TimeStamp>
<when>2017-10-27T16:20:31</when>
</TimeStamp>
<Point>
<coordinates>34.802654,32.16828</coordinates>
</Point>
</Placemark>
<Placemark>
<name><![CDATA[dserota]]></name>
<description><![CDATA[BSSID: <b>00:1b:9e:7a:43:13</b><br/>Frequency:<b>6</b><br/>Date: <b>2017-10-27 16:20:31</b>]]></description><styleUrl>#green</styleUrl>
<TimeStamp>
<when>2017-10-27T16:20:31</when>
</TimeStamp>
<Point>
<coordinates>34.802654,32.16828</coordinates>
</Point>
</Placemark>
<Placemark>
<name><![CDATA[BezeqFree]]></name>
<description><![CDATA[BSSID: <b>06:ae:db:b1:ac:0d</b><br/>Frequency:<b>11</b><br/>Date: <b>2017-10-27 16:20:31</b>]]></description><styleUrl>#green</styleUrl>
<TimeStamp>
<when>2017-10-27T16:20:31</when>
</TimeStamp>
<Point>
<coordinates>34.802654,32.16828</coordinates>
</Point>
</Placemark>
<Placemark>
<name><![CDATA[Student]]></name>
<description><![CDATA[BSSID: <b>82:2a:a8:18:13:88</b><br/>Frequency:<b>11</b><br/>Date: <b>2017-10-27 16:20:32</b>]]></description><styleUrl>#green</styleUrl>
<TimeStamp>
<when>2017-10-27T16:20:32</when>
</TimeStamp>
<Point>
<coordinates>34.80257,32.16829</coordinates>
</Point>
</Placemark>
<Placemark>
<name><![CDATA[Shiri1000_2.4]]></name>
<description><![CDATA[BSSID: <b>10:5a:f7:0e:5d:f5</b><br/>Frequency:<b>1</b><br/>Date: <b>2017-10-27 16:20:37</b>]]></description><styleUrl>#green</styleUrl>
<TimeStamp>
<when>2017-10-27T16:20:37</when>
</TimeStamp>
<Point>
<coordinates>34.802113,32.168335</coordinates>
</Point>
</Placemark>
<Placemark>
<name><![CDATA[HOTBOX-81C2]]></name>
<description><![CDATA[BSSID: <b>7c:03:4c:ba:aa:42</b><br/>Frequency:<b>6</b><br/>Date: <b>2017-10-27 16:20:37</b>]]></description><styleUrl>#green</styleUrl>
<TimeStamp>
<when>2017-10-27T16:20:37</when>
</TimeStamp>
<Point>
<coordinates>34.802113,32.168335</coordinates>
</Point>
</Placemark>
<Placemark>
<name><![CDATA[elneuron]]></name>
<description><![CDATA[BSSID: <b>e8:fc:af:92:b9:87</b><br/>Frequency:<b>1</b><br/>Date: <b>2017-10-27 16:20:37</b>]]></description><styleUrl>#green</styleUrl>
<TimeStamp>
<when>2017-10-27T16:20:37</when>
</TimeStamp>
<Point>
<coordinates>34.802113,32.168335</coordinates>
</Point>
</Placemark>
<Placemark>
<name><![CDATA[DIRECT-BB-HP OfficeJet 3830]]></name>
<description><![CDATA[BSSID: <b>30:e1:71:08:fe:bc</b><br/>Frequency:<b>11</b><br/>Date: <b>2017-10-27 16:20:37</b>]]></description><styleUrl>#green</styleUrl>
<TimeStamp>
<when>2017-10-27T16:20:37</when>
</TimeStamp>
<Point>
<coordinates>34.802113,32.168335</coordinates>
</Point>
</Placemark>
<Placemark>
<name><![CDATA[HomeVFS]]></name>
<description><![CDATA[BSSID: <b>7c:b7:33:bf:bb:5f</b><br/>Frequency:<b>6</b><br/>Date: <b>2017-10-27 16:20:37</b>]]></description><styleUrl>#green</styleUrl>
<TimeStamp>
<when>2017-10-27T16:20:37</when>
</TimeStamp>
<Point>
<coordinates>34.802113,32.168335</coordinates>
</Point>
</Placemark>
<Placemark>
<name><![CDATA[I.L.L]]></name>
<description><![CDATA[BSSID: <b>a0:63:91:78:40:b2</b><br/>Frequency:<b>11</b><br/>Date: <b>2017-10-27 16:20:37</b>]]></description><styleUrl>#green</styleUrl>
<TimeStamp>
<when>2017-10-27T16:20:37</when>
</TimeStamp>
<Point>
<coordinates>34.802113,32.168335</coordinates>
</Point>
</Placemark>
<Placemark>
<name><![CDATA[HOTBOX]]></name>
<description><![CDATA[BSSID: <b>a4:08:f5:2e:23:af</b><br/>Frequency:<b>1</b><br/>Date: <b>2017-10-27 16:20:37</b>]]></description><styleUrl>#green</styleUrl>
<TimeStamp>
<when>2017-10-27T16:20:37</when>
</TimeStamp>
<Point>
<coordinates>34.802113,32.168335</coordinates>
</Point>
</Placemark>
<Placemark>
<name><![CDATA[HOTBOX]]></name>
<description><![CDATA[BSSID: <b>00:78:9e:fb:be:f6</b><br/>Frequency:<b>1</b><br/>Date: <b>2017-10-27 16:20:37</b>]]></description><styleUrl>#green</styleUrl>
<TimeStamp>
<when>2017-10-27T16:20:37</when>
</TimeStamp>
<Point>
<coordinates>34.802113,32.168335</coordinates>
</Point>
</Placemark>
<Placemark>
<name><![CDATA[netbox]]></name>
<description><![CDATA[BSSID: <b>d0:d4:12:67:a1:fa</b><br/>Frequency:<b>1</b><br/>Date: <b>2017-10-27 16:20:41</b>]]></description><styleUrl>#green</styleUrl>
<TimeStamp>
<when>2017-10-27T16:20:41</when>
</TimeStamp>
<Point>
<coordinates>34.801727,32.168373</coordinates>
</Point>
</Placemark>
<Placemark>
<name><![CDATA[eldan]]></name>
<description><![CDATA[BSSID: <b>00:23:cd:16:9e:e0</b><br/>Frequency:<b>6</b><br/>Date: <b>2017-10-27 16:20:41</b>]]></description><styleUrl>#green</styleUrl>
<TimeStamp>
<when>2017-10-27T16:20:41</when>
</TimeStamp>
<Point>
<coordinates>34.801727,32.168373</coordinates>
</Point>
</Placemark>
<Placemark>
<name><![CDATA[MEIR_2.4]]></name>
<description><![CDATA[BSSID: <b>a0:4f:d4:2c:5e:11</b><br/>Frequency:<b>1</b><br/>Date: <b>2017-10-27 16:20:41</b>]]></description><styleUrl>#green</styleUrl>
<TimeStamp>
<when>2017-10-27T16:20:41</when>
</TimeStamp>
<Point>
<coordinates>34.801727,32.168373</coordinates>
</Point>
</Placemark>
<Placemark>
<name><![CDATA[Shemesh]]></name>
<description><![CDATA[BSSID: <b>3c:1e:04:05:ad:17</b><br/>Frequency:<b>11</b><br/>Date: <b>2017-10-27 16:20:41</b>]]></description><styleUrl>#green</styleUrl>
<TimeStamp>
<when>2017-10-27T16:20:41</when>
</TimeStamp>
<Point>
<coordinates>34.801727,32.168373</coordinates>
</Point>
</Placemark>
<Placemark>
<name><![CDATA[Dav]]></name>
<description><![CDATA[BSSID: <b>c0:d9:62:f5:17:d9</b><br/>Frequency:<b>6</b><br/>Date: <b>2017-10-27 16:20:41</b>]]></description><styleUrl>#green</styleUrl>
<TimeStamp>
<when>2017-10-27T16:20:41</when>
</TimeStamp>
<Point>
<coordinates>34.801727,32.168373</coordinates>
</Point>
</Placemark>
<Placemark>
<name><![CDATA[DIRECT-C5-HP OfficeJet 3830]]></name>
<description><![CDATA[BSSID: <b>30:e1:71:08:ae:c7</b><br/>Frequency:<b>6</b><br/>Date: <b>2017-10-27 16:20:41</b>]]></description><styleUrl>#green</styleUrl>
<TimeStamp>
<when>2017-10-27T16:20:41</when>
</TimeStamp>
<Point>
<coordinates>34.801727,32.168373</coordinates>
</Point>
</Placemark>
<Placemark>
<name><![CDATA[BezeqFree]]></name>
<description><![CDATA[BSSID: <b>06:ae:db:ba:2d:35</b><br/>Frequency:<b>1</b><br/>Date: <b>2017-10-27 16:20:41</b>]]></description><styleUrl>#green</styleUrl>
<TimeStamp>
<when>2017-10-27T16:20:41</when>
</TimeStamp>
<Point>
<coordinates>34.801727,32.168373</coordinates>
</Point>
</Placemark>
<Placemark>
<name><![CDATA[simba6]]></name>
<description><![CDATA[BSSID: <b>d8:37:be:f1:86:c9</b><br/>Frequency:<b>7</b><br/>Date: <b>2017-10-27 16:20:41</b>]]></description><styleUrl>#green</styleUrl>
<TimeStamp>
<when>2017-10-27T16:20:41</when>
</TimeStamp>
<Point>
<coordinates>34.801727,32.168373</coordinates>
</Point>
</Placemark>
<Placemark>
<name><![CDATA[Claude]]></name>
<description><![CDATA[BSSID: <b>d0:d4:12:5c:c3:6a</b><br/>Frequency:<b>11</b><br/>Date: <b>2017-10-27 16:20:41</b>]]></description><styleUrl>#green</styleUrl>
<TimeStamp>
<when>2017-10-27T16:20:41</when>
</TimeStamp>
<Point>
<coordinates>34.801727,32.168373</coordinates>
</Point>
</Placemark>
<Placemark>
<name><![CDATA[HOTBOX-E00E]]></name>
<description><![CDATA[BSSID: <b>f8:ab:05:46:d5:5e</b><br/>Frequency:<b>1</b><br/>Date: <b>2017-10-27 16:20:41</b>]]></description><styleUrl>#green</styleUrl>
<TimeStamp>
<when>2017-10-27T16:20:41</when>
</TimeStamp>
<Point>
<coordinates>34.801727,32.168373</coordinates>
</Point>
</Placemark>
<Placemark>
<name><![CDATA[smadarwifi]]></name>
<description><![CDATA[BSSID: <b>46:d9:e7:03:ff:09</b><br/>Frequency:<b>48</b><br/>Date: <b>2017-10-27 16:20:42</b>]]></description><styleUrl>#green</styleUrl>
<TimeStamp>
<when>2017-10-27T16:20:42</when>
</TimeStamp>
<Point>
<coordinates>34.80163,32.168385</coordinates>
</Point>
</Placemark>
<Placemark>
<name><![CDATA[hadad]]></name>
<description><![CDATA[BSSID: <b>70:62:b8:30:db:f8</b><br/>Frequency:<b>1</b><br/>Date: <b>2017-10-27 16:20:51</b>]]></description><styleUrl>#green</styleUrl>
<TimeStamp>
<when>2017-10-27T16:20:51</when>
</TimeStamp>
<Point>
<coordinates>34.800766,32.168476</coordinates>
</Point>
</Placemark>
<Placemark>
<name><![CDATA[japan]]></name>
<description><![CDATA[BSSID: <b>70:62:b8:30:f8:4e</b><br/>Frequency:<b>1</b><br/>Date: <b>2017-10-27 16:20:51</b>]]></description><styleUrl>#green</styleUrl>
<TimeStamp>
<when>2017-10-27T16:20:51</when>
</TimeStamp>
<Point>
<coordinates>34.800766,32.168476</coordinates>
</Point>
</Placemark>
<Placemark>
<name><![CDATA[joy]]></name>
<description><![CDATA[BSSID: <b>9c:d6:43:23:0c:9c</b><br/>Frequency:<b>6</b><br/>Date: <b>2017-10-27 16:20:51</b>]]></description><styleUrl>#green</styleUrl>
<TimeStamp>
<when>2017-10-27T16:20:51</when>
</TimeStamp>
<Point>
<coordinates>34.800766,32.168476</coordinates>
</Point>
</Placemark>
<Placemark>
<name><![CDATA[pollock24]]></name>
<description><![CDATA[BSSID: <b>04:a1:51:d0:22:a5</b><br/>Frequency:<b>3</b><br/>Date: <b>2017-10-27 16:20:51</b>]]></description><styleUrl>#green</styleUrl>
<TimeStamp>
<when>2017-10-27T16:20:51</when>
</TimeStamp>
<Point>
<coordinates>34.800766,32.168476</coordinates>
</Point>
</Placemark>
<Placemark>
<name><![CDATA[Chen_5]]></name>
<description><![CDATA[BSSID: <b>14:ae:db:30:c9:d5</b><br/>Frequency:<b>48</b><br/>Date: <b>2017-10-27 16:20:51</b>]]></description><styleUrl>#green</styleUrl>
<TimeStamp>
<when>2017-10-27T16:20:51</when>
</TimeStamp>
<Point>
<coordinates>34.800766,32.168476</coordinates>
</Point>
</Placemark>
<Placemark>
<name><![CDATA[rubinstein]]></name>
<description><![CDATA[BSSID: <b>e8:cc:18:ec:a6:64</b><br/>Frequency:<b>6</b><br/>Date: <b>2017-10-27 16:20:52</b>]]></description><styleUrl>#green</styleUrl>
<TimeStamp>
<when>2017-10-27T16:20:52</when>
</TimeStamp>
<Point>
<coordinates>34.800674,32.168488</coordinates>
</Point>
</Placemark>
<Placemark>
<name><![CDATA[]]></name>
<description><![CDATA[BSSID: <b>fa:8f:ca:7c:70:2f</b><br/>Frequency:<b>11</b><br/>Date: <b>2017-10-27 16:20:52</b>]]></description><styleUrl>#green</styleUrl>
<TimeStamp>
<when>2017-10-27T16:20:52</when>
</TimeStamp>
<Point>
<coordinates>34.800674,32.168488</coordinates>
</Point>
</Placemark>
<Placemark>
<name><![CDATA[Partner]]></name>
<description><![CDATA[BSSID: <b>42501_13111_8652801</b><br/>Frequency:<b>0</b><br/>Date: <b>2017-10-27 16:20:58</b>]]></description><styleUrl>#green</styleUrl>
<TimeStamp>
<when>2017-10-27T16:20:58</when>
</TimeStamp>
<Point>
<coordinates>34.800335,32.168537</coordinates>
</Point>
</Placemark>
<Placemark>
<name><![CDATA[DanAccadia]]></name>
<description><![CDATA[BSSID: <b>0c:f4:d5:1b:38:e8</b><br/>Frequency:<b>9</b><br/>Date: <b>2017-10-27 16:21:02</b>]]></description><styleUrl>#green</styleUrl>
<TimeStamp>
<when>2017-10-27T16:21:02</when>
</TimeStamp>
<Point>
<coordinates>34.800255,32.168594</coordinates>
</Point>
</Placemark>
<Placemark>
<name><![CDATA[DanAccadia]]></name>
<description><![CDATA[BSSID: <b>d8:38:fc:27:22:58</b><br/>Frequency:<b>9</b><br/>Date: <b>2017-10-27 16:21:02</b>]]></description><styleUrl>#green</styleUrl>
<TimeStamp>
<when>2017-10-27T16:21:02</when>
</TimeStamp>
<Point>
<coordinates>34.800255,32.168594</coordinates>
</Point>
</Placemark>
<Placemark>
<name><![CDATA[DanAccadia]]></name>
<description><![CDATA[BSSID: <b>d8:38:fc:26:d2:68</b><br/>Frequency:<b>10</b><br/>Date: <b>2017-10-27 16:21:02</b>]]></description><styleUrl>#green</styleUrl>
<TimeStamp>
<when>2017-10-27T16:21:02</when>
</TimeStamp>
<Point>
<coordinates>34.800255,32.168594</coordinates>
</Point>
</Placemark>
<Placemark>
<name><![CDATA[]]></name>
<description><![CDATA[BSSID: <b>d8:38:fc:66:d2:68</b><br/>Frequency:<b>10</b><br/>Date: <b>2017-10-27 16:21:02</b>]]></description><styleUrl>#green</styleUrl>
<TimeStamp>
<when>2017-10-27T16:21:02</when>
</TimeStamp>
<Point>
<coordinates>34.800255,32.168594</coordinates>
</Point>
</Placemark>
<Placemark>
<name><![CDATA[Video Connection]]></name>
<description><![CDATA[BSSID: <b>6c:b0:ce:e8:2a:b0</b><br/>Frequency:<b>1</b><br/>Date: <b>2017-10-27 16:21:07</b>]]></description><styleUrl>#green</styleUrl>
<TimeStamp>
<when>2017-10-27T16:21:07</when>
</TimeStamp>
<Point>
<coordinates>34.800247,32.168888</coordinates>
</Point>
</Placemark>
<Placemark>
<name><![CDATA[]]></name>
<description><![CDATA[BSSID: <b>0c:f4:d5:5b:09:98</b><br/>Frequency:<b>13</b><br/>Date: <b>2017-10-27 16:21:07</b>]]></description><styleUrl>#green</styleUrl>
<TimeStamp>
<when>2017-10-27T16:21:07</when>
</TimeStamp>
<Point>
<coordinates>34.800247,32.168888</coordinates>
</Point>
</Placemark>
<Placemark>
<name><![CDATA[stefan]]></name>
<description><![CDATA[BSSID: <b>e0:ce:c3:8c:2b:5a</b><br/>Frequency:<b>6</b><br/>Date: <b>2017-10-27 16:21:07</b>]]></description><styleUrl>#green</styleUrl>
<TimeStamp>
<when>2017-10-27T16:21:07</when>
</TimeStamp>
<Point>
<coordinates>34.800247,32.168888</coordinates>
</Point>
</Placemark>
<Placemark>
<name><![CDATA[Video Connection]]></name>
<description><![CDATA[BSSID: <b>6c:b0:ce:e8:2a:50</b><br/>Frequency:<b>1</b><br/>Date: <b>2017-10-27 16:21:10</b>]]></description><styleUrl>#green</styleUrl>
<TimeStamp>
<when>2017-10-27T16:21:10</when>
</TimeStamp>
<Point>
<coordinates>34.800278,32.169132</coordinates>
</Point>
</Placemark>
<Placemark>
<name><![CDATA[Sgreg]]></name>
<description><![CDATA[BSSID: <b>28:94:0f:f9:a6:d4</b><br/>Frequency:<b>2</b><br/>Date: <b>2017-10-27 16:21:10</b>]]></description><styleUrl>#green</styleUrl>
<TimeStamp>
<when>2017-10-27T16:21:10</when>
</TimeStamp>
<Point>
<coordinates>34.800278,32.169132</coordinates>
</Point>
</Placemark>
<Placemark>
<name><![CDATA[Video Connection]]></name>
<description><![CDATA[BSSID: <b>6c:b0:ce:e8:2e:50</b><br/>Frequency:<b>6</b><br/>Date: <b>2017-10-27 16:21:12</b>]]></description><styleUrl>#green</styleUrl>
<TimeStamp>
<when>2017-10-27T16:21:12</when>
</TimeStamp>
<Point>
<coordinates>34.800304,32.169304</coordinates>
</Point>
</Placemark>
<Placemark>
<name><![CDATA[Ellman-2.4Ghz]]></name>
<description><![CDATA[BSSID: <b>04:a1:51:c4:27:6e</b><br/>Frequency:<b>6</b><br/>Date: <b>2017-10-27 16:21:12</b>]]></description><styleUrl>#green</styleUrl>
<TimeStamp>
<when>2017-10-27T16:21:12</when>
</TimeStamp>
<Point>
<coordinates>34.800304,32.169304</coordinates>
</Point>
</Placemark>
<Placemark>
<name><![CDATA[shmuela]]></name>
<description><![CDATA[BSSID: <b>00:78:9e:fa:33:72</b><br/>Frequency:<b>1</b><br/>Date: <b>2017-10-27 16:21:12</b>]]></description><styleUrl>#green</styleUrl>
<TimeStamp>
<when>2017-10-27T16:21:12</when>
</TimeStamp>
<Point>
<coordinates>34.800304,32.169304</coordinates>
</Point>
</Placemark>
<Placemark>
<name><![CDATA[HP-Print-33-Deskjet 4640 series]]></name>
<description><![CDATA[BSSID: <b>a0:48:1c:65:96:33</b><br/>Frequency:<b>1</b><br/>Date: <b>2017-10-27 16:21:15</b>]]></description><styleUrl>#green</styleUrl>
<TimeStamp>
<when>2017-10-27T16:21:15</when>
</TimeStamp>
<Point>
<coordinates>34.80036,32.169556</coordinates>
</Point>
</Placemark>
<Placemark>
<name><![CDATA[DanAccadia]]></name>
<description><![CDATA[BSSID: <b>0c:f4:d5:1b:e1:58</b><br/>Frequency:<b>4</b><br/>Date: <b>2017-10-27 16:21:22</b>]]></description><styleUrl>#green</styleUrl>
<TimeStamp>
<when>2017-10-27T16:21:22</when>
</TimeStamp>
<Point>
<coordinates>34.800476,32.169956</coordinates>
</Point>
</Placemark>
<Placemark>
<name><![CDATA[phily]]></name>
<description><![CDATA[BSSID: <b>2c:b0:5d:40:dc:ac</b><br/>Frequency:<b>11</b><br/>Date: <b>2017-10-27 16:21:22</b>]]></description><styleUrl>#green</styleUrl>
<TimeStamp>
<when>2017-10-27T16:21:22</when>
</TimeStamp>
<Point>
<coordinates>34.800476,32.169956</coordinates>
</Point>
</Placemark>
<Placemark>
<name><![CDATA[Partner]]></name>
<description><![CDATA[BSSID: <b>42501_13111_8652809</b><br/>Frequency:<b>0</b><br/>Date: <b>2017-10-27 16:21:29</b>]]></description><styleUrl>#green</styleUrl>
<TimeStamp>
<when>2017-10-27T16:21:29</when>
</TimeStamp>
<Point>
<coordinates>34.80068,32.17042</coordinates>
</Point>
</Placemark>
<Placemark>
<name><![CDATA[Chana]]></name>
<description><![CDATA[BSSID: <b>10:be:f5:3d:80:3a</b><br/>Frequency:<b>9</b><br/>Date: <b>2017-10-27 16:21:30</b>]]></description><styleUrl>#green</styleUrl>
<TimeStamp>
<when>2017-10-27T16:21:30</when>
</TimeStamp>
<Point>
<coordinates>34.800716,32.170506</coordinates>
</Point>
</Placemark>
<Placemark>
<name><![CDATA[TopAudio]]></name>
<description><![CDATA[BSSID: <b>04:a1:51:2f:f2:be</b><br/>Frequency:<b>6</b><br/>Date: <b>2017-10-27 16:21:30</b>]]></description><styleUrl>#green</styleUrl>
<TimeStamp>
<when>2017-10-27T16:21:30</when>
</TimeStamp>
<Point>
<coordinates>34.800716,32.170506</coordinates>
</Point>
</Placemark>
<Placemark>
<name><![CDATA[]]></name>
<description><![CDATA[BSSID: <b>0c:f4:d5:5c:14:38</b><br/>Frequency:<b>4</b><br/>Date: <b>2017-10-27 16:21:30</b>]]></description><styleUrl>#green</styleUrl>
<TimeStamp>
<when>2017-10-27T16:21:30</when>
</TimeStamp>
<Point>
<coordinates>34.800716,32.170506</coordinates>
</Point>
</Placemark>
<Placemark>
<name><![CDATA[gidron]]></name>
<description><![CDATA[BSSID: <b>f8:0b:cb:51:74:e8</b><br/>Frequency:<b>1</b><br/>Date: <b>2017-10-27 16:21:30</b>]]></description><styleUrl>#green</styleUrl>
<TimeStamp>
<when>2017-10-27T16:21:30</when>
</TimeStamp>
<Point>
<coordinates>34.800716,32.170506</coordinates>
</Point>
</Placemark>
<Placemark>
<name><![CDATA[daniel]]></name>
<description><![CDATA[BSSID: <b>e8:1d:a8:05:01:38</b><br/>Frequency:<b>1</b><br/>Date: <b>2017-10-27 16:21:30</b>]]></description><styleUrl>#green</styleUrl>
<TimeStamp>
<when>2017-10-27T16:21:30</when>
</TimeStamp>
<Point>
<coordinates>34.800716,32.170506</coordinates>
</Point>
</Placemark>
<Placemark>
<name><![CDATA[ohait1]]></name>
<description><![CDATA[BSSID: <b>bc:67:1c:41:3a:03</b><br/>Frequency:<b>5</b><br/>Date: <b>2017-10-27 16:21:32</b>]]></description><styleUrl>#green</styleUrl>
<TimeStamp>
<when>2017-10-27T16:21:32</when>
</TimeStamp>
<Point>
<coordinates>34.80079,32.170662</coordinates>
</Point>
</Placemark>
<Placemark>
<name><![CDATA[TopAudio]]></name>
<description><![CDATA[BSSID: <b>e4:f4:c6:4d:c7:5c</b><br/>Frequency:<b>6</b><br/>Date: <b>2017-10-27 16:21:32</b>]]></description><styleUrl>#green</styleUrl>
<TimeStamp>
<when>2017-10-27T16:21:32</when>
</TimeStamp>
<Point>
<coordinates>34.80079,32.170662</coordinates>
</Point>
</Placemark>
<Placemark>
<name><![CDATA[Gollar's Mac]]></name>
<description><![CDATA[BSSID: <b>5c:96:9d:67:47:71</b><br/>Frequency:<b>6</b><br/>Date: <b>2017-10-27 16:21:32</b>]]></description><styleUrl>#green</styleUrl>
<TimeStamp>
<when>2017-10-27T16:21:32</when>
</TimeStamp>
<Point>
<coordinates>34.80079,32.170662</coordinates>
</Point>
</Placemark>
<Placemark>
<name><![CDATA[nilly]]></name>
<description><![CDATA[BSSID: <b>00:78:9e:fa:9d:51</b><br/>Frequency:<b>11</b><br/>Date: <b>2017-10-27 16:21:32</b>]]></description><styleUrl>#green</styleUrl>
<TimeStamp>
<when>2017-10-27T16:21:32</when>
</TimeStamp>
<Point>
<coordinates>34.80079,32.170662</coordinates>
</Point>
</Placemark>
<Placemark>
<name><![CDATA[HP-Print-A9-Officejet Pro 6830]]></name>
<description><![CDATA[BSSID: <b>dc:4a:3e:39:b0:a9</b><br/>Frequency:<b>10</b><br/>Date: <b>2017-10-27 16:21:32</b>]]></description><styleUrl>#green</styleUrl>
<TimeStamp>
<when>2017-10-27T16:21:32</when>
</TimeStamp>
<Point>
<coordinates>34.80079,32.170662</coordinates>
</Point>
</Placemark>
<Placemark>
<name><![CDATA[TP-LINK_MENASHE]]></name>
<description><![CDATA[BSSID: <b>14:cc:20:93:1f:50</b><br/>Frequency:<b>11</b><br/>Date: <b>2017-10-27 16:21:37</b>]]></description><styleUrl>#green</styleUrl>
<TimeStamp>
<when>2017-10-27T16:21:37</when>
</TimeStamp>
<Point>
<coordinates>34.80094,32.171043</coordinates>
</Point>
</Placemark>
<Placemark>
<name><![CDATA[NIPPON_3575]]></name>
<description><![CDATA[BSSID: <b>08:97:58:32:d1:b8</b><br/>Frequency:<b>5</b><br/>Date: <b>2017-10-27 16:21:37</b>]]></description><styleUrl>#green</styleUrl>
<TimeStamp>
<when>2017-10-27T16:21:37</when>
</TimeStamp>
<Point>
<coordinates>34.80094,32.171043</coordinates>
</Point>
</Placemark>
<Placemark>
<name><![CDATA[Rosaness]]></name>
<description><![CDATA[BSSID: <b>84:18:3a:1d:3b:bc</b><br/>Frequency:<b>52</b><br/>Date: <b>2017-10-27 16:21:37</b>]]></description><styleUrl>#green</styleUrl>
<TimeStamp>
<when>2017-10-27T16:21:37</when>
</TimeStamp>
<Point>
<coordinates>34.80094,32.171043</coordinates>
</Point>
</Placemark>
<Placemark>
<name><![CDATA[daniel]]></name>
<description><![CDATA[BSSID: <b>e8:1d:a8:05:01:58</b><br/>Frequency:<b>4</b><br/>Date: <b>2017-10-27 16:21:42</b>]]></description><styleUrl>#green</styleUrl>
<TimeStamp>
<when>2017-10-27T16:21:42</when>
</TimeStamp>
<Point>
<coordinates>34.80108,32.17135</coordinates>
</Point>
</Placemark>
<Placemark>
<name><![CDATA[MatchBoxAir]]></name>
<description><![CDATA[BSSID: <b>30:b5:c2:3d:a9:0a</b><br/>Frequency:<b>11</b><br/>Date: <b>2017-10-27 16:21:42</b>]]></description><styleUrl>#green</styleUrl>
<TimeStamp>
<when>2017-10-27T16:21:42</when>
</TimeStamp>
<Point>
<coordinates>34.80108,32.17135</coordinates>
</Point>
</Placemark>
<Placemark>
<name><![CDATA[HOTBOX-8C78]]></name>
<description><![CDATA[BSSID: <b>c0:ac:54:f8:57:42</b><br/>Frequency:<b>9</b><br/>Date: <b>2017-10-27 16:21:42</b>]]></description><styleUrl>#green</styleUrl>
<TimeStamp>
<when>2017-10-27T16:21:42</when>
</TimeStamp>
<Point>
<coordinates>34.80108,32.17135</coordinates>
</Point>
</Placemark>
<Placemark>
<name><![CDATA[daniel]]></name>
<description><![CDATA[BSSID: <b>e8:1d:a8:04:fc:08</b><br/>Frequency:<b>11</b><br/>Date: <b>2017-10-27 16:21:42</b>]]></description><styleUrl>#green</styleUrl>
<TimeStamp>
<when>2017-10-27T16:21:42</when>
</TimeStamp>
<Point>
<coordinates>34.80108,32.17135</coordinates>
</Point>
</Placemark>
<Placemark>
<name><![CDATA[daniel]]></name>
<description><![CDATA[BSSID: <b>e8:1d:a8:04:fa:68</b><br/>Frequency:<b>11</b><br/>Date: <b>2017-10-27 16:21:42</b>]]></description><styleUrl>#green</styleUrl>
<TimeStamp>
<when>2017-10-27T16:21:42</when>
</TimeStamp>
<Point>
<coordinates>34.80108,32.17135</coordinates>
</Point>
</Placemark>
<Placemark>
<name><![CDATA[daniel]]></name>
<description><![CDATA[BSSID: <b>e8:1d:a8:05:0f:c8</b><br/>Frequency:<b>4</b><br/>Date: <b>2017-10-27 16:21:42</b>]]></description><styleUrl>#green</styleUrl>
<TimeStamp>
<when>2017-10-27T16:21:42</when>
</TimeStamp>
<Point>
<coordinates>34.80108,32.17135</coordinates>
</Point>
</Placemark>
<Placemark>
<name><![CDATA[HOTBOX-BOX-72A6]]></name>
<description><![CDATA[BSSID: <b>b4:ee:b4:ae:86:43</b><br/>Frequency:<b>1</b><br/>Date: <b>2017-10-27 16:21:42</b>]]></description><styleUrl>#green</styleUrl>
<TimeStamp>
<when>2017-10-27T16:21:42</when>
</TimeStamp>
<Point>
<coordinates>34.80108,32.17135</coordinates>
</Point>
</Placemark>
<Placemark>
<name><![CDATA[daniel]]></name>
<description><![CDATA[BSSID: <b>e8:1d:a8:03:91:58</b><br/>Frequency:<b>6</b><br/>Date: <b>2017-10-27 16:21:42</b>]]></description><styleUrl>#green</styleUrl>
<TimeStamp>
<when>2017-10-27T16:21:42</when>
</TimeStamp>
<Point>
<coordinates>34.80108,32.17135</coordinates>
</Point>
</Placemark>
<Placemark>
<name><![CDATA[Partner]]></name>
<description><![CDATA[BSSID: <b>42501_13111_8627203</b><br/>Frequency:<b>0</b><br/>Date: <b>2017-10-27 16:21:45</b>]]></description><styleUrl>#green</styleUrl>
<TimeStamp>
<when>2017-10-27T16:21:45</when>
</TimeStamp>
<Point>
<coordinates>34.801132,32.171494</coordinates>
</Point>
</Placemark>
<Placemark>
<name><![CDATA[ey]]></name>
<description><![CDATA[BSSID: <b>b4:ee:b4:ac:f4:a3</b><br/>Frequency:<b>1</b><br/>Date: <b>2017-10-27 16:21:52</b>]]></description><styleUrl>#green</styleUrl>
<TimeStamp>
<when>2017-10-27T16:21:52</when>
</TimeStamp>
<Point>
<coordinates>34.801304,32.171913</coordinates>
</Point>
</Placemark>
<Placemark>
<name><![CDATA[Claes]]></name>
<description><![CDATA[BSSID: <b>a0:4f:d4:3d:16:01</b><br/>Frequency:<b>1</b><br/>Date: <b>2017-10-27 16:21:52</b>]]></description><styleUrl>#green</styleUrl>
<TimeStamp>
<when>2017-10-27T16:21:52</when>
</TimeStamp>
<Point>
<coordinates>34.801304,32.171913</coordinates>
</Point>
</Placemark>
<Placemark>
<name><![CDATA[Vnet-t]]></name>
<description><![CDATA[BSSID: <b>ec:8c:a2:08:9f:38</b><br/>Frequency:<b>9</b><br/>Date: <b>2017-10-27 16:21:52</b>]]></description><styleUrl>#green</styleUrl>
<TimeStamp>
<when>2017-10-27T16:21:52</when>
</TimeStamp>
<Point>
<coordinates>34.801304,32.171913</coordinates>
</Point>
</Placemark>
<Placemark>
<name><![CDATA[HOTBOX-E99C]]></name>
<description><![CDATA[BSSID: <b>6c:2e:85:fe:95:f7</b><br/>Frequency:<b>1</b><br/>Date: <b>2017-10-27 16:21:52</b>]]></description><styleUrl>#green</styleUrl>
<TimeStamp>
<when>2017-10-27T16:21:52</when>
</TimeStamp>
<Point>
<coordinates>34.801304,32.171913</coordinates>
</Point>
</Placemark>
<Placemark>
<name><![CDATA[Jacobs Flat]]></name>
<description><![CDATA[BSSID: <b>00:78:9e:fa:29:1e</b><br/>Frequency:<b>11</b><br/>Date: <b>2017-10-27 16:21:52</b>]]></description><styleUrl>#green</styleUrl>
<TimeStamp>
<when>2017-10-27T16:21:52</when>
</TimeStamp>
<Point>
<coordinates>34.801304,32.171913</coordinates>
</Point>
</Placemark>
<Placemark>
<name><![CDATA[HOTBOX-F2DC]]></name>
<description><![CDATA[BSSID: <b>00:78:9e:f9:ff:02</b><br/>Frequency:<b>1</b><br/>Date: <b>2017-10-27 16:21:52</b>]]></description><styleUrl>#green</styleUrl>
<TimeStamp>
<when>2017-10-27T16:21:52</when>
</TimeStamp>
<Point>
<coordinates>34.801304,32.171913</coordinates>
</Point>
</Placemark>
<Placemark>
<name><![CDATA[HOTBOX-9A18]]></name>
<description><![CDATA[BSSID: <b>f4:6b:ef:e0:f3:6d</b><br/>Frequency:<b>13</b><br/>Date: <b>2017-10-27 16:21:52</b>]]></description><styleUrl>#green</styleUrl>
<TimeStamp>
<when>2017-10-27T16:21:52</when>
</TimeStamp>
<Point>
<coordinates>34.801304,32.171913</coordinates>
</Point>
</Placemark>
<Placemark>
<name><![CDATA[MiriTal]]></name>
<description><![CDATA[BSSID: <b>a0:4f:d4:3e:7c:31</b><br/>Frequency:<b>1</b><br/>Date: <b>2017-10-27 16:22:00</b>]]></description><styleUrl>#green</styleUrl>
<TimeStamp>
<when>2017-10-27T16:22:00</when>
</TimeStamp>
<Point>
<coordinates>34.801495,32.17237</coordinates>
</Point>
</Placemark>
<Placemark>
<name><![CDATA[orchid]]></name>
<description><![CDATA[BSSID: <b>f0:3e:90:0f:6b:58</b><br/>Frequency:<b>1</b><br/>Date: <b>2017-10-27 16:22:02</b>]]></description><styleUrl>#green</styleUrl>
<TimeStamp>
<when>2017-10-27T16:22:02</when>
</TimeStamp>
<Point>
<coordinates>34.801575,32.172455</coordinates>
</Point>
</Placemark>
<Placemark>
<name><![CDATA[HOTBOX-B239]]></name>
<description><![CDATA[BSSID: <b>e0:ce:c3:8b:b2:3f</b><br/>Frequency:<b>1</b><br/>Date: <b>2017-10-27 16:22:02</b>]]></description><styleUrl>#green</styleUrl>
<TimeStamp>
<when>2017-10-27T16:22:02</when>
</TimeStamp>
<Point>
<coordinates>34.801575,32.172455</coordinates>
</Point>
</Placemark>
<Placemark>
<name><![CDATA[orchid]]></name>
<description><![CDATA[BSSID: <b>f0:3e:90:0f:6b:b8</b><br/>Frequency:<b>11</b><br/>Date: <b>2017-10-27 16:22:02</b>]]></description><styleUrl>#green</styleUrl>
<TimeStamp>
<when>2017-10-27T16:22:02</when>
</TimeStamp>
<Point>
<coordinates>34.801575,32.172455</coordinates>
</Point>
</Placemark>
<Placemark>
<name><![CDATA[orchid]]></name>
<description><![CDATA[BSSID: <b>24:79:2a:0e:0f:e8</b><br/>Frequency:<b>1</b><br/>Date: <b>2017-10-27 16:22:02</b>]]></description><styleUrl>#green</styleUrl>
<TimeStamp>
<when>2017-10-27T16:22:02</when>
</TimeStamp>
<Point>
<coordinates>34.801575,32.172455</coordinates>
</Point>
</Placemark>
<Placemark>
<name><![CDATA[Danziger]]></name>
<description><![CDATA[BSSID: <b>00:24:2c:a8:7a:2c</b><br/>Frequency:<b>11</b><br/>Date: <b>2017-10-27 16:22:02</b>]]></description><styleUrl>#green</styleUrl>
<TimeStamp>
<when>2017-10-27T16:22:02</when>
</TimeStamp>
<Point>
<coordinates>34.801575,32.172455</coordinates>
</Point>
</Placemark>
<Placemark>
<name><![CDATA[TopAudio-N]]></name>
<description><![CDATA[BSSID: <b>90:a7:c1:14:e3:b4</b><br/>Frequency:<b>4</b><br/>Date: <b>2017-10-27 16:22:02</b>]]></description><styleUrl>#green</styleUrl>
<TimeStamp>
<when>2017-10-27T16:22:02</when>
</TimeStamp>
<Point>
<coordinates>34.801575,32.172455</coordinates>
</Point>
</Placemark>
<Placemark>
<name><![CDATA[HOTBOX-9A18]]></name>
<description><![CDATA[BSSID: <b>b0:b2:8f:21:16:bc</b><br/>Frequency:<b>13</b><br/>Date: <b>2017-10-27 16:22:02</b>]]></description><styleUrl>#green</styleUrl>
<TimeStamp>
<when>2017-10-27T16:22:02</when>
</TimeStamp>
<Point>
<coordinates>34.801575,32.172455</coordinates>
</Point>
</Placemark>
<Placemark>
<name><![CDATA[amir1]]></name>
<description><![CDATA[BSSID: <b>14:ae:db:39:a9:2d</b><br/>Frequency:<b>6</b><br/>Date: <b>2017-10-27 16:22:07</b>]]></description><styleUrl>#green</styleUrl>
<TimeStamp>
<when>2017-10-27T16:22:07</when>
</TimeStamp>
<Point>
<coordinates>34.8017,32.172646</coordinates>
</Point>
</Placemark>
<Placemark>
<name><![CDATA[deborah]]></name>
<description><![CDATA[BSSID: <b>14:ae:db:57:4e:4d</b><br/>Frequency:<b>1</b><br/>Date: <b>2017-10-27 16:22:07</b>]]></description><styleUrl>#green</styleUrl>
<TimeStamp>
<when>2017-10-27T16:22:07</when>
</TimeStamp>
<Point>
<coordinates>34.8017,32.172646</coordinates>
</Point>
</Placemark>
<Placemark>
<name><![CDATA[DIRECT-53-HP DeskJet 3830 series]]></name>
<description><![CDATA[BSSID: <b>fc:3f:db:a0:28:77</b><br/>Frequency:<b>6</b><br/>Date: <b>2017-10-27 16:22:07</b>]]></description><styleUrl>#green</styleUrl>
<TimeStamp>
<when>2017-10-27T16:22:07</when>
</TimeStamp>
<Point>
<coordinates>34.8017,32.172646</coordinates>
</Point>
</Placemark>
<Placemark>
<name><![CDATA[toffy]]></name>
<description><![CDATA[BSSID: <b>00:1d:aa:80:94:4c</b><br/>Frequency:<b>9</b><br/>Date: <b>2017-10-27 16:22:07</b>]]></description><styleUrl>#green</styleUrl>
<TimeStamp>
<when>2017-10-27T16:22:07</when>
</TimeStamp>
<Point>
<coordinates>34.8017,32.172646</coordinates>
</Point>
</Placemark>
<Placemark>
<name><![CDATA[rdpokecoke2]]></name>
<description><![CDATA[BSSID: <b>bc:f6:85:0d:22:cb</b><br/>Frequency:<b>6</b><br/>Date: <b>2017-10-27 16:22:07</b>]]></description><styleUrl>#green</styleUrl>
<TimeStamp>
<when>2017-10-27T16:22:07</when>
</TimeStamp>
<Point>
<coordinates>34.8017,32.172646</coordinates>
</Point>
</Placemark>
<Placemark>
<name><![CDATA[TopAudio]]></name>
<description><![CDATA[BSSID: <b>4c:60:de:d1:da:80</b><br/>Frequency:<b>6</b><br/>Date: <b>2017-10-27 16:22:08</b>]]></description><styleUrl>#green</styleUrl>
<TimeStamp>
<when>2017-10-27T16:22:08</when>
</TimeStamp>
<Point>
<coordinates>34.801666,32.172684</coordinates>
</Point>
</Placemark>
<Placemark>
<name><![CDATA[123uoses]]></name>
<description><![CDATA[BSSID: <b>00:12:2a:31:b9:dc</b><br/>Frequency:<b>9</b><br/>Date: <b>2017-10-27 16:22:13</b>]]></description><styleUrl>#green</styleUrl>
<TimeStamp>
<when>2017-10-27T16:22:13</when>
</TimeStamp>
<Point>
<coordinates>34.801464,32.172565</coordinates>
</Point>
</Placemark>
<Placemark>
<name><![CDATA[DIRECT-20-HP DeskJet 3830 series]]></name>
<description><![CDATA[BSSID: <b>fc:3f:db:a0:1b:94</b><br/>Frequency:<b>1</b><br/>Date: <b>2017-10-27 16:22:13</b>]]></description><styleUrl>#green</styleUrl>
<TimeStamp>
<when>2017-10-27T16:22:13</when>
</TimeStamp>
<Point>
<coordinates>34.801464,32.172565</coordinates>
</Point>
</Placemark>
<Placemark>
<name><![CDATA[HOTBOX-1]]></name>
<description><![CDATA[BSSID: <b>40:65:a3:2b:58:68</b><br/>Frequency:<b>11</b><br/>Date: <b>2017-10-27 16:22:13</b>]]></description><styleUrl>#green</styleUrl>
<TimeStamp>
<when>2017-10-27T16:22:13</when>
</TimeStamp>
<Point>
<coordinates>34.801464,32.172565</coordinates>
</Point>
</Placemark>
<Placemark>
<name><![CDATA[HOTBOX-04F2]]></name>
<description><![CDATA[BSSID: <b>c0:ac:54:f6:28:a3</b><br/>Frequency:<b>1</b><br/>Date: <b>2017-10-27 16:22:13</b>]]></description><styleUrl>#green</styleUrl>
<TimeStamp>
<when>2017-10-27T16:22:13</when>
</TimeStamp>
<Point>
<coordinates>34.801464,32.172565</coordinates>
</Point>
</Placemark>
<Placemark>
<name><![CDATA[HOTBOX-F3BE]]></name>
<description><![CDATA[BSSID: <b>c0:ac:54:f6:e1:ec</b><br/>Frequency:<b>11</b><br/>Date: <b>2017-10-27 16:22:13</b>]]></description><styleUrl>#green</styleUrl>
<TimeStamp>
<when>2017-10-27T16:22:13</when>
</TimeStamp>
<Point>
<coordinates>34.801464,32.172565</coordinates>
</Point>
</Placemark>
<Placemark>
<name><![CDATA[orchid]]></name>
<description><![CDATA[BSSID: <b>f0:3e:90:0f:56:d8</b><br/>Frequency:<b>6</b><br/>Date: <b>2017-10-27 16:22:13</b>]]></description><styleUrl>#green</styleUrl>
<TimeStamp>
<when>2017-10-27T16:22:13</when>
</TimeStamp>
<Point>
<coordinates>34.801464,32.172565</coordinates>
</Point>
</Placemark>
<Placemark>
<name><![CDATA[HOTBOX-2E16]]></name>
<description><![CDATA[BSSID: <b>00:78:9e:fb:7c:f8</b><br/>Frequency:<b>6</b><br/>Date: <b>2017-10-27 16:22:13</b>]]></description><styleUrl>#green</styleUrl>
<TimeStamp>
<when>2017-10-27T16:22:13</when>
</TimeStamp>
<Point>
<coordinates>34.801464,32.172565</coordinates>
</Point>
</Placemark>
<Placemark>
<name><![CDATA[daniel]]></name>
<description><![CDATA[BSSID: <b>e8:1d:a8:03:91:08</b><br/>Frequency:<b>6</b><br/>Date: <b>2017-10-27 16:22:22</b>]]></description><styleUrl>#green</styleUrl>
<TimeStamp>
<when>2017-10-27T16:22:22</when>
</TimeStamp>
<Point>
<coordinates>34.801224,32.171925</coordinates>
</Point>
</Placemark>
<Placemark>
<name><![CDATA[daniel]]></name>
<description><![CDATA[BSSID: <b>e8:1d:a8:05:15:78</b><br/>Frequency:<b>6</b><br/>Date: <b>2017-10-27 16:22:22</b>]]></description><styleUrl>#green</styleUrl>
<TimeStamp>
<when>2017-10-27T16:22:22</when>
</TimeStamp>
<Point>
<coordinates>34.801224,32.171925</coordinates>
</Point>
</Placemark>
<Placemark>
<name><![CDATA[HOTBOX-A8E3]]></name>
<description><![CDATA[BSSID: <b>08:6a:0a:22:a8:e9</b><br/>Frequency:<b>1</b><br/>Date: <b>2017-10-27 16:22:22</b>]]></description><styleUrl>#green</styleUrl>
<TimeStamp>
<when>2017-10-27T16:22:22</when>
</TimeStamp>
<Point>
<coordinates>34.801224,32.171925</coordinates>
</Point>
</Placemark>
<Placemark>
<name><![CDATA[doram012]]></name>
<description><![CDATA[BSSID: <b>00:90:8f:2b:c0:5c</b><br/>Frequency:<b>8</b><br/>Date: <b>2017-10-27 16:22:22</b>]]></description><styleUrl>#green</styleUrl>
<TimeStamp>
<when>2017-10-27T16:22:22</when>
</TimeStamp>
<Point>
<coordinates>34.801224,32.171925</coordinates>
</Point>
</Placemark>
<Placemark>
<name><![CDATA[daniel]]></name>
<description><![CDATA[BSSID: <b>90:f6:52:55:86:37</b><br/>Frequency:<b>11</b><br/>Date: <b>2017-10-27 16:22:22</b>]]></description><styleUrl>#green</styleUrl>
<TimeStamp>
<when>2017-10-27T16:22:22</when>
</TimeStamp>
<Point>
<coordinates>34.801224,32.171925</coordinates>
</Point>
</Placemark>
<Placemark>
<name><![CDATA[HP-Print-18-Officejet Pro 6830]]></name>
<description><![CDATA[BSSID: <b>dc:4a:3e:11:e5:18</b><br/>Frequency:<b>2</b><br/>Date: <b>2017-10-27 16:22:22</b>]]></description><styleUrl>#green</styleUrl>
<TimeStamp>
<when>2017-10-27T16:22:22</when>
</TimeStamp>
<Point>
<coordinates>34.801224,32.171925</coordinates>
</Point>
</Placemark>
<Placemark>
<name><![CDATA[daniel]]></name>
<description><![CDATA[BSSID: <b>e8:1d:a8:04:fa:a8</b><br/>Frequency:<b>11</b><br/>Date: <b>2017-10-27 16:22:34</b>]]></description><styleUrl>#green</styleUrl>
<TimeStamp>
<when>2017-10-27T16:22:34</when>
</TimeStamp>
<Point>
<coordinates>34.80119,32.171818</coordinates>
</Point>
</Placemark>
<Placemark>
<name><![CDATA[daniel]]></name>
<description><![CDATA[BSSID: <b>e8:1d:a8:03:91:0c</b><br/>Frequency:<b>36</b><br/>Date: <b>2017-10-27 16:22:34</b>]]></description><styleUrl>#green</styleUrl>
<TimeStamp>
<when>2017-10-27T16:22:34</when>
</TimeStamp>
<Point>
<coordinates>34.80119,32.171818</coordinates>
</Point>
</Placemark>
<Placemark>
<name><![CDATA[TREEHOUSE]]></name>
<description><![CDATA[BSSID: <b>c4:12:f5:7f:5a:15</b><br/>Frequency:<b>6</b><br/>Date: <b>2017-10-27 16:22:37</b>]]></description><styleUrl>#green</styleUrl>
<TimeStamp>
<when>2017-10-27T16:22:37</when>
</TimeStamp>
<Point>
<coordinates>34.801163,32.17174</coordinates>
</Point>
</Placemark>
<Placemark>
<name><![CDATA[HOTBOX-4E11]]></name>
<description><![CDATA[BSSID: <b>7c:b7:33:2e:4e:17</b><br/>Frequency:<b>1</b><br/>Date: <b>2017-10-27 16:22:37</b>]]></description><styleUrl>#green</styleUrl>
<TimeStamp>
<when>2017-10-27T16:22:37</when>
</TimeStamp>
<Point>
<coordinates>34.801163,32.17174</coordinates>
</Point>
</Placemark>
<Placemark>
<name><![CDATA[HOTBOX2]]></name>
<description><![CDATA[BSSID: <b>7c:b7:33:2c:b9:21</b><br/>Frequency:<b>11</b><br/>Date: <b>2017-10-27 16:22:37</b>]]></description><styleUrl>#green</styleUrl>
<TimeStamp>
<when>2017-10-27T16:22:37</when>
</TimeStamp>
<Point>
<coordinates>34.801163,32.17174</coordinates>
</Point>
</Placemark>
<Placemark>
<name><![CDATA[kenedy]]></name>
<description><![CDATA[BSSID: <b>e8:94:f6:b7:4f:54</b><br/>Frequency:<b>5</b><br/>Date: <b>2017-10-27 16:22:37</b>]]></description><styleUrl>#green</styleUrl>
<TimeStamp>
<when>2017-10-27T16:22:37</when>
</TimeStamp>
<Point>
<coordinates>34.801163,32.17174</coordinates>
</Point>
</Placemark>
<Placemark>
<name><![CDATA[daniel]]></name>
<description><![CDATA[BSSID: <b>d8:38:fc:1c:a6:38</b><br/>Frequency:<b>1</b><br/>Date: <b>2017-10-27 16:22:44</b>]]></description><styleUrl>#green</styleUrl>
<TimeStamp>
<when>2017-10-27T16:22:44</when>
</TimeStamp>
<Point>
<coordinates>34.801094,32.171566</coordinates>
</Point>
</Placemark>
<Placemark>
<name><![CDATA[Logitech]]></name>
<description><![CDATA[BSSID: <b>d8:38:fc:5c:a6:38</b><br/>Frequency:<b>1</b><br/>Date: <b>2017-10-27 16:22:44</b>]]></description><styleUrl>#green</styleUrl>
<TimeStamp>
<when>2017-10-27T16:22:44</when>
</TimeStamp>
<Point>
<coordinates>34.801094,32.171566</coordinates>
</Point>
</Placemark>
<Placemark>
<name><![CDATA[daniel]]></name>
<description><![CDATA[BSSID: <b>e8:1d:a8:04:ff:88</b><br/>Frequency:<b>1</b><br/>Date: <b>2017-10-27 16:22:44</b>]]></description><styleUrl>#green</styleUrl>
<TimeStamp>
<when>2017-10-27T16:22:44</when>
</TimeStamp>
<Point>
<coordinates>34.801094,32.171566</coordinates>
</Point>
</Placemark>
<Placemark>
<name><![CDATA[daniel]]></name>
<description><![CDATA[BSSID: <b>d8:38:fc:1c:a6:3c</b><br/>Frequency:<b>36</b><br/>Date: <b>2017-10-27 16:22:44</b>]]></description><styleUrl>#green</styleUrl>
<TimeStamp>
<when>2017-10-27T16:22:44</when>
</TimeStamp>
<Point>
<coordinates>34.801094,32.171566</coordinates>
</Point>
</Placemark>
<Placemark>
<name><![CDATA[Logitech]]></name>
<description><![CDATA[BSSID: <b>d8:38:fc:5c:a6:3c</b><br/>Frequency:<b>36</b><br/>Date: <b>2017-10-27 16:22:44</b>]]></description><styleUrl>#green</styleUrl>
<TimeStamp>
<when>2017-10-27T16:22:44</when>
</TimeStamp>
<Point>
<coordinates>34.801094,32.171566</coordinates>
</Point>
</Placemark>
<Placemark>
<name><![CDATA[daniel]]></name>
<description><![CDATA[BSSID: <b>e8:1d:a8:03:91:88</b><br/>Frequency:<b>6</b><br/>Date: <b>2017-10-27 16:22:44</b>]]></description><styleUrl>#green</styleUrl>
<TimeStamp>
<when>2017-10-27T16:22:44</when>
</TimeStamp>
<Point>
<coordinates>34.801094,32.171566</coordinates>
</Point>
</Placemark>
<Placemark>
<name><![CDATA[daniel]]></name>
<description><![CDATA[BSSID: <b>e8:1d:a8:03:91:8c</b><br/>Frequency:<b>36</b><br/>Date: <b>2017-10-27 16:22:44</b>]]></description><styleUrl>#green</styleUrl>
<TimeStamp>
<when>2017-10-27T16:22:44</when>
</TimeStamp>
<Point>
<coordinates>34.801094,32.171566</coordinates>
</Point>
</Placemark>
<Placemark>
<name><![CDATA[GP25665584]]></name>
<description><![CDATA[BSSID: <b>f6:dd:9e:7a:1a:4f</b><br/>Frequency:<b>1</b><br/>Date: <b>2017-10-27 16:22:49</b>]]></description><styleUrl>#green</styleUrl>
<TimeStamp>
<when>2017-10-27T16:22:49</when>
</TimeStamp>
<Point>
<coordinates>34.801,32.171333</coordinates>
</Point>
</Placemark>
<Placemark>
<name><![CDATA[Rosaness]]></name>
<description><![CDATA[BSSID: <b>84:18:3a:1c:b7:18</b><br/>Frequency:<b>1</b><br/>Date: <b>2017-10-27 16:22:52</b>]]></description><styleUrl>#green</styleUrl>
<TimeStamp>
<when>2017-10-27T16:22:52</when>
</TimeStamp>
<Point>
<coordinates>34.80093,32.171158</coordinates>
</Point>
</Placemark>
<Placemark>
<name><![CDATA[daniel]]></name>
<description><![CDATA[BSSID: <b>e8:1d:a8:05:0c:98</b><br/>Frequency:<b>6</b><br/>Date: <b>2017-10-27 16:22:52</b>]]></description><styleUrl>#green</styleUrl>
<TimeStamp>
<when>2017-10-27T16:22:52</when>
</TimeStamp>
<Point>
<coordinates>34.80093,32.171158</coordinates>
</Point>
</Placemark>
<Placemark>
<name><![CDATA[daniel]]></name>
<description><![CDATA[BSSID: <b>54:e6:fc:ce:18:97</b><br/>Frequency:<b>1</b><br/>Date: <b>2017-10-27 16:22:52</b>]]></description><styleUrl>#green</styleUrl>
<TimeStamp>
<when>2017-10-27T16:22:52</when>
</TimeStamp>
<Point>
<coordinates>34.80093,32.171158</coordinates>
</Point>
</Placemark>
<Placemark>
<name><![CDATA[HOTBOX-E8E0]]></name>
<description><![CDATA[BSSID: <b>6c:2e:85:fe:d2:d3</b><br/>Frequency:<b>11</b><br/>Date: <b>2017-10-27 16:22:52</b>]]></description><styleUrl>#green</styleUrl>
<TimeStamp>
<when>2017-10-27T16:22:52</when>
</TimeStamp>
<Point>
<coordinates>34.80093,32.171158</coordinates>
</Point>
</Placemark>
<Placemark>
<name><![CDATA[daniel]]></name>
<description><![CDATA[BSSID: <b>e8:1d:a8:04:fe:98</b><br/>Frequency:<b>9</b><br/>Date: <b>2017-10-27 16:22:52</b>]]></description><styleUrl>#green</styleUrl>
<TimeStamp>
<when>2017-10-27T16:22:52</when>
</TimeStamp>
<Point>
<coordinates>34.80093,32.171158</coordinates>
</Point>
</Placemark>
<Placemark>
<name><![CDATA[Logitech]]></name>
<description><![CDATA[BSSID: <b>d8:38:fc:5c:e6:58</b><br/>Frequency:<b>7</b><br/>Date: <b>2017-10-27 16:22:52</b>]]></description><styleUrl>#green</styleUrl>
<TimeStamp>
<when>2017-10-27T16:22:52</when>
</TimeStamp>
<Point>
<coordinates>34.80093,32.171158</coordinates>
</Point>
</Placemark>
<Placemark>
<name><![CDATA[Rosaness]]></name>
<description><![CDATA[BSSID: <b>84:18:3a:1c:c9:a8</b><br/>Frequency:<b>1</b><br/>Date: <b>2017-10-27 16:22:54</b>]]></description><styleUrl>#green</styleUrl>
<TimeStamp>
<when>2017-10-27T16:22:54</when>
</TimeStamp>
<Point>
<coordinates>34.800877,32.171017</coordinates>
</Point>
</Placemark>
<Placemark>
<name><![CDATA[HOTBOX-9A18]]></name>
<description><![CDATA[BSSID: <b>c0:ac:54:f8:0f:1f</b><br/>Frequency:<b>13</b><br/>Date: <b>2017-10-27 16:23:04</b>]]></description><styleUrl>#green</styleUrl>
<TimeStamp>
<when>2017-10-27T16:23:04</when>
</TimeStamp>
<Point>
<coordinates>34.800537,32.1702</coordinates>
</Point>
</Placemark>
<Placemark>
<name><![CDATA[marcus 1]]></name>
<description><![CDATA[BSSID: <b>74:da:38:30:26:6f</b><br/>Frequency:<b>2</b><br/>Date: <b>2017-10-27 16:23:04</b>]]></description><styleUrl>#green</styleUrl>
<TimeStamp>
<when>2017-10-27T16:23:04</when>
</TimeStamp>
<Point>
<coordinates>34.800537,32.1702</coordinates>
</Point>
</Placemark>
<Placemark>
<name><![CDATA[Rosaness]]></name>
<description><![CDATA[BSSID: <b>84:18:3a:1d:3b:b8</b><br/>Frequency:<b>11</b><br/>Date: <b>2017-10-27 16:23:05</b>]]></description><styleUrl>#green</styleUrl>
<TimeStamp>
<when>2017-10-27T16:23:05</when>
</TimeStamp>
<Point>
<coordinates>34.80052,32.17016</coordinates>
</Point>
</Placemark>
<Placemark>
<name><![CDATA[HOTBOX-62D0_2EX]]></name>
<description><![CDATA[BSSID: <b>74:da:38:a6:3c:32</b><br/>Frequency:<b>1</b><br/>Date: <b>2017-10-27 16:23:05</b>]]></description><styleUrl>#green</styleUrl>
<TimeStamp>
<when>2017-10-27T16:23:05</when>
</TimeStamp>
<Point>
<coordinates>34.80052,32.17016</coordinates>
</Point>
</Placemark>
<Placemark>
<name><![CDATA[hpsetup]]></name>
<description><![CDATA[BSSID: <b>8a:ff:b4:f8:5c:3a</b><br/>Frequency:<b>6</b><br/>Date: <b>2017-10-27 16:23:05</b>]]></description><styleUrl>#green</styleUrl>
<TimeStamp>
<when>2017-10-27T16:23:05</when>
</TimeStamp>
<Point>
<coordinates>34.80052,32.17016</coordinates>
</Point>
</Placemark>
<Placemark>
<name><![CDATA[Rosaness]]></name>
<description><![CDATA[BSSID: <b>84:18:3a:1c:b7:1c</b><br/>Frequency:<b>60</b><br/>Date: <b>2017-10-27 16:23:05</b>]]></description><styleUrl>#green</styleUrl>
<TimeStamp>
<when>2017-10-27T16:23:05</when>
</TimeStamp>
<Point>
<coordinates>34.80052,32.17016</coordinates>
</Point>
</Placemark>
<Placemark>
<name><![CDATA[Bezeq Free NA1F34]]></name>
<description><![CDATA[BSSID: <b>72:2b:8c:99:02:06</b><br/>Frequency:<b>1</b><br/>Date: <b>2017-10-27 16:23:07</b>]]></description><styleUrl>#green</styleUrl>
<TimeStamp>
<when>2017-10-27T16:23:07</when>
</TimeStamp>
<Point>
<coordinates>34.8005,32.170113</coordinates>
</Point>
</Placemark>
<Placemark>
<name><![CDATA[lazare2.4]]></name>
<description><![CDATA[BSSID: <b>a4:2b:8c:99:02:05</b><br/>Frequency:<b>1</b><br/>Date: <b>2017-10-27 16:23:07</b>]]></description><styleUrl>#green</styleUrl>
<TimeStamp>
<when>2017-10-27T16:23:07</when>
</TimeStamp>
<Point>
<coordinates>34.8005,32.170113</coordinates>
</Point>
</Placemark>
<Placemark>
<name><![CDATA[Chenriko]]></name>
<description><![CDATA[BSSID: <b>c8:be:19:13:21:d6</b><br/>Frequency:<b>3</b><br/>Date: <b>2017-10-27 16:23:07</b>]]></description><styleUrl>#green</styleUrl>
<TimeStamp>
<when>2017-10-27T16:23:07</when>
</TimeStamp>
<Point>
<coordinates>34.8005,32.170113</coordinates>
</Point>
</Placemark>
<Placemark>
<name><![CDATA[Sofia2.4]]></name>
<description><![CDATA[BSSID: <b>c4:12:f5:84:32:e0</b><br/>Frequency:<b>11</b><br/>Date: <b>2017-10-27 16:23:14</b>]]></description><styleUrl>#green</styleUrl>
<TimeStamp>
<when>2017-10-27T16:23:14</when>
</TimeStamp>
<Point>
<coordinates>34.800472,32.17004</coordinates>
</Point>
</Placemark>
<Placemark>
<name><![CDATA[Benhamou]]></name>
<description><![CDATA[BSSID: <b>c4:12:f5:f5:45:f6</b><br/>Frequency:<b>3</b><br/>Date: <b>2017-10-27 16:23:22</b>]]></description><styleUrl>#green</styleUrl>
<TimeStamp>
<when>2017-10-27T16:23:22</when>
</TimeStamp>
<Point>
<coordinates>34.80031,32.16951</coordinates>
</Point>
</Placemark>
<Placemark>
<name><![CDATA[HP-Print-45-Deskjet 4640 series]]></name>
<description><![CDATA[BSSID: <b>5c:b9:01:6a:8c:45</b><br/>Frequency:<b>6</b><br/>Date: <b>2017-10-27 16:23:22</b>]]></description><styleUrl>#green</styleUrl>
<TimeStamp>
<when>2017-10-27T16:23:22</when>
</TimeStamp>
<Point>
<coordinates>34.80031,32.16951</coordinates>
</Point>
</Placemark>
<Placemark>
<name><![CDATA[IIT]]></name>
<description><![CDATA[BSSID: <b>ec:8c:a2:a1:25:c8</b><br/>Frequency:<b>6</b><br/>Date: <b>2017-10-27 16:23:22</b>]]></description><styleUrl>#green</styleUrl>
<TimeStamp>
<when>2017-10-27T16:23:22</when>
</TimeStamp>
<Point>
<coordinates>34.80031,32.16951</coordinates>
</Point>
</Placemark>
<Placemark>
<name><![CDATA[DanAccadia]]></name>
<description><![CDATA[BSSID: <b>ec:8c:a2:21:25:c8</b><br/>Frequency:<b>6</b><br/>Date: <b>2017-10-27 16:23:22</b>]]></description><styleUrl>#green</styleUrl>
<TimeStamp>
<when>2017-10-27T16:23:22</when>
</TimeStamp>
<Point>
<coordinates>34.80031,32.16951</coordinates>
</Point>
</Placemark>
<Placemark>
<name><![CDATA[DanAccadia]]></name>
<description><![CDATA[BSSID: <b>d8:38:fc:26:ec:1c</b><br/>Frequency:<b>44</b><br/>Date: <b>2017-10-27 16:23:22</b>]]></description><styleUrl>#green</styleUrl>
<TimeStamp>
<when>2017-10-27T16:23:22</when>
</TimeStamp>
<Point>
<coordinates>34.80031,32.16951</coordinates>
</Point>
</Placemark>
<Placemark>
<name><![CDATA[]]></name>
<description><![CDATA[BSSID: <b>ec:8c:a2:61:25:c8</b><br/>Frequency:<b>6</b><br/>Date: <b>2017-10-27 16:23:22</b>]]></description><styleUrl>#green</styleUrl>
<TimeStamp>
<when>2017-10-27T16:23:22</when>
</TimeStamp>
<Point>
<coordinates>34.80031,32.16951</coordinates>
</Point>
</Placemark>
<Placemark>
<name><![CDATA[]]></name>
<description><![CDATA[BSSID: <b>d8:38:fc:66:ec:1c</b><br/>Frequency:<b>44</b><br/>Date: <b>2017-10-27 16:23:22</b>]]></description><styleUrl>#green</styleUrl>
<TimeStamp>
<when>2017-10-27T16:23:22</when>
</TimeStamp>
<Point>
<coordinates>34.80031,32.16951</coordinates>
</Point>
</Placemark>
<Placemark>
<name><![CDATA[Gold]]></name>
<description><![CDATA[BSSID: <b>a0:4f:d4:44:36:71</b><br/>Frequency:<b>1</b><br/>Date: <b>2017-10-27 16:23:24</b>]]></description><styleUrl>#green</styleUrl>
<TimeStamp>
<when>2017-10-27T16:23:24</when>
</TimeStamp>
<Point>
<coordinates>34.80027,32.16932</coordinates>
</Point>
</Placemark>
<Placemark>
<name><![CDATA[Yafit-10bb]]></name>
<description><![CDATA[BSSID: <b>a0:ab:1b:62:4d:d0</b><br/>Frequency:<b>8</b><br/>Date: <b>2017-10-27 16:23:24</b>]]></description><styleUrl>#green</styleUrl>
<TimeStamp>
<when>2017-10-27T16:23:24</when>
</TimeStamp>
<Point>
<coordinates>34.80027,32.16932</coordinates>
</Point>
</Placemark>
<Placemark>
<name><![CDATA[SavantS]]></name>
<description><![CDATA[BSSID: <b>e4:f4:c6:d8:e8:60</b><br/>Frequency:<b>6</b><br/>Date: <b>2017-10-27 16:23:34</b>]]></description><styleUrl>#green</styleUrl>
<TimeStamp>
<when>2017-10-27T16:23:34</when>
</TimeStamp>
<Point>
<coordinates>34.800175,32.16859</coordinates>
</Point>
</Placemark>
<Placemark>
<name><![CDATA[DanAccadia]]></name>
<description><![CDATA[BSSID: <b>0c:f4:d5:1b:08:58</b><br/>Frequency:<b>12</b><br/>Date: <b>2017-10-27 16:23:34</b>]]></description><styleUrl>#green</styleUrl>
<TimeStamp>
<when>2017-10-27T16:23:34</when>
</TimeStamp>
<Point>
<coordinates>34.800175,32.16859</coordinates>
</Point>
</Placemark>
<Placemark>
<name><![CDATA[PELEG]]></name>
<description><![CDATA[BSSID: <b>14:d6:4d:f4:42:d7</b><br/>Frequency:<b>6</b><br/>Date: <b>2017-10-27 16:23:34</b>]]></description><styleUrl>#green</styleUrl>
<TimeStamp>
<when>2017-10-27T16:23:34</when>
</TimeStamp>
<Point>
<coordinates>34.800175,32.16859</coordinates>
</Point>
</Placemark>
<Placemark>
<name><![CDATA[DanAccadia]]></name>
<description><![CDATA[BSSID: <b>d8:38:fc:26:dd:d8</b><br/>Frequency:<b>8</b><br/>Date: <b>2017-10-27 16:23:34</b>]]></description><styleUrl>#green</styleUrl>
<TimeStamp>
<when>2017-10-27T16:23:34</when>
</TimeStamp>
<Point>
<coordinates>34.800175,32.16859</coordinates>
</Point>
</Placemark>
<Placemark>
<name><![CDATA[DanAccadia]]></name>
<description><![CDATA[BSSID: <b>d8:38:fc:26:dc:38</b><br/>Frequency:<b>4</b><br/>Date: <b>2017-10-27 16:23:34</b>]]></description><styleUrl>#green</styleUrl>
<TimeStamp>
<when>2017-10-27T16:23:34</when>
</TimeStamp>
<Point>
<coordinates>34.800175,32.16859</coordinates>
</Point>
</Placemark>
<Placemark>
<name><![CDATA[DanAccadia]]></name>
<description><![CDATA[BSSID: <b>0c:f4:d5:1b:0b:18</b><br/>Frequency:<b>4</b><br/>Date: <b>2017-10-27 16:23:34</b>]]></description><styleUrl>#green</styleUrl>
<TimeStamp>
<when>2017-10-27T16:23:34</when>
</TimeStamp>
<Point>
<coordinates>34.800175,32.16859</coordinates>
</Point>
</Placemark>
<Placemark>
<name><![CDATA[]]></name>
<description><![CDATA[BSSID: <b>0c:f4:d5:5b:d3:88</b><br/>Frequency:<b>3</b><br/>Date: <b>2017-10-27 16:23:34</b>]]></description><styleUrl>#green</styleUrl>
<TimeStamp>
<when>2017-10-27T16:23:34</when>
</TimeStamp>
<Point>
<coordinates>34.800175,32.16859</coordinates>
</Point>
</Placemark>
<Placemark>
<name><![CDATA[DanAccadia]]></name>
<description><![CDATA[BSSID: <b>d8:38:fc:26:fb:d8</b><br/>Frequency:<b>9</b><br/>Date: <b>2017-10-27 16:23:34</b>]]></description><styleUrl>#green</styleUrl>
<TimeStamp>
<when>2017-10-27T16:23:34</when>
</TimeStamp>
<Point>
<coordinates>34.800175,32.16859</coordinates>
</Point>
</Placemark>
<Placemark>
<name><![CDATA[HOTBOX-62D0]]></name>
<description><![CDATA[BSSID: <b>54:64:d9:66:27:79</b><br/>Frequency:<b>1</b><br/>Date: <b>2017-10-27 16:23:36</b>]]></description><styleUrl>#green</styleUrl>
<TimeStamp>
<when>2017-10-27T16:23:36</when>
</TimeStamp>
<Point>
<coordinates>34.80016,32.16847</coordinates>
</Point>
</Placemark>
<Placemark>
<name><![CDATA[Lazar]]></name>
<description><![CDATA[BSSID: <b>54:e6:fc:ff:72:1f</b><br/>Frequency:<b>6</b><br/>Date: <b>2017-10-27 16:23:36</b>]]></description><styleUrl>#green</styleUrl>
<TimeStamp>
<when>2017-10-27T16:23:36</when>
</TimeStamp>
<Point>
<coordinates>34.80016,32.16847</coordinates>
</Point>
</Placemark>
<Placemark>
<name><![CDATA[Chen]]></name>
<description><![CDATA[BSSID: <b>14:ae:db:30:c9:d2</b><br/>Frequency:<b>2</b><br/>Date: <b>2017-10-27 16:23:37</b>]]></description><styleUrl>#green</styleUrl>
<TimeStamp>
<when>2017-10-27T16:23:37</when>
</TimeStamp>
<Point>
<coordinates>34.800148,32.1684</coordinates>
</Point>
</Placemark>
<Placemark>
<name><![CDATA[BezeqFree]]></name>
<description><![CDATA[BSSID: <b>14:af:db:30:c9:d2</b><br/>Frequency:<b>2</b><br/>Date: <b>2017-10-27 16:23:37</b>]]></description><styleUrl>#green</styleUrl>
<TimeStamp>
<when>2017-10-27T16:23:37</when>
</TimeStamp>
<Point>
<coordinates>34.800148,32.1684</coordinates>
</Point>
</Placemark>
<Placemark>
<name><![CDATA[DanAccadia]]></name>
<description><![CDATA[BSSID: <b>d8:38:fc:26:02:98</b><br/>Frequency:<b>6</b><br/>Date: <b>2017-10-27 16:23:37</b>]]></description><styleUrl>#green</styleUrl>
<TimeStamp>
<when>2017-10-27T16:23:37</when>
</TimeStamp>
<Point>
<coordinates>34.800148,32.1684</coordinates>
</Point>
</Placemark>
<Placemark>
<name><![CDATA[DanAccadia]]></name>
<description><![CDATA[BSSID: <b>d8:38:fc:26:ff:28</b><br/>Frequency:<b>11</b><br/>Date: <b>2017-10-27 16:23:37</b>]]></description><styleUrl>#green</styleUrl>
<TimeStamp>
<when>2017-10-27T16:23:37</when>
</TimeStamp>
<Point>
<coordinates>34.800148,32.1684</coordinates>
</Point>
</Placemark>
<Placemark>
<name><![CDATA[Marine-Heights]]></name>
<description><![CDATA[BSSID: <b>d4:68:4d:39:3f:88</b><br/>Frequency:<b>11</b><br/>Date: <b>2017-10-27 16:23:37</b>]]></description><styleUrl>#green</styleUrl>
<TimeStamp>
<when>2017-10-27T16:23:37</when>
</TimeStamp>
<Point>
<coordinates>34.800148,32.1684</coordinates>
</Point>
</Placemark>
<Placemark>
<name><![CDATA[]]></name>
<description><![CDATA[BSSID: <b>0c:f4:d5:5b:e1:48</b><br/>Frequency:<b>13</b><br/>Date: <b>2017-10-27 16:23:37</b>]]></description><styleUrl>#green</styleUrl>
<TimeStamp>
<when>2017-10-27T16:23:37</when>
</TimeStamp>
<Point>
<coordinates>34.800148,32.1684</coordinates>
</Point>
</Placemark>
<Placemark>
<name><![CDATA[DanAccadia]]></name>
<description><![CDATA[BSSID: <b>0c:f4:d5:1b:d3:88</b><br/>Frequency:<b>3</b><br/>Date: <b>2017-10-27 16:23:37</b>]]></description><styleUrl>#green</styleUrl>
<TimeStamp>
<when>2017-10-27T16:23:37</when>
</TimeStamp>
<Point>
<coordinates>34.800148,32.1684</coordinates>
</Point>
</Placemark>
<Placemark>
<name><![CDATA[Daniela]]></name>
<description><![CDATA[BSSID: <b>14:ae:db:32:cf:42</b><br/>Frequency:<b>7</b><br/>Date: <b>2017-10-27 16:23:44</b>]]></description><styleUrl>#green</styleUrl>
<TimeStamp>
<when>2017-10-27T16:23:44</when>
</TimeStamp>
<Point>
<coordinates>34.80035,32.168064</coordinates>
</Point>
</Placemark>
<Placemark>
<name><![CDATA[DIRECT-51-HP DeskJet 4670 series]]></name>
<description><![CDATA[BSSID: <b>30:e1:71:f0:7b:52</b><br/>Frequency:<b>10</b><br/>Date: <b>2017-10-27 16:23:44</b>]]></description><styleUrl>#green</styleUrl>
<TimeStamp>
<when>2017-10-27T16:23:44</when>
</TimeStamp>
<Point>
<coordinates>34.80035,32.168064</coordinates>
</Point>
</Placemark>
<Placemark>
<name><![CDATA[HP-Print-C1-Officejet Pro 8600]]></name>
<description><![CDATA[BSSID: <b>28:92:4a:bc:a2:c1</b><br/>Frequency:<b>1</b><br/>Date: <b>2017-10-27 16:23:44</b>]]></description><styleUrl>#green</styleUrl>
<TimeStamp>
<when>2017-10-27T16:23:44</when>
</TimeStamp>
<Point>
<coordinates>34.80035,32.168064</coordinates>
</Point>
</Placemark>
<Placemark>
<name><![CDATA[Happy Home Network]]></name>
<description><![CDATA[BSSID: <b>c0:a0:bb:cc:e2:3a</b><br/>Frequency:<b>1</b><br/>Date: <b>2017-10-27 16:23:44</b>]]></description><styleUrl>#green</styleUrl>
<TimeStamp>
<when>2017-10-27T16:23:44</when>
</TimeStamp>
<Point>
<coordinates>34.80035,32.168064</coordinates>
</Point>
</Placemark>
<Placemark>
<name><![CDATA[TNCAPE5A34D]]></name>
<description><![CDATA[BSSID: <b>9c:97:26:8a:43:e1</b><br/>Frequency:<b>1</b><br/>Date: <b>2017-10-27 16:23:44</b>]]></description><styleUrl>#green</styleUrl>
<TimeStamp>
<when>2017-10-27T16:23:44</when>
</TimeStamp>
<Point>
<coordinates>34.80035,32.168064</coordinates>
</Point>
</Placemark>
<Placemark>
<name><![CDATA[Rozalin.co.il]]></name>
<description><![CDATA[BSSID: <b>08:5b:0e:8e:06:97</b><br/>Frequency:<b>1</b><br/>Date: <b>2017-10-27 16:23:44</b>]]></description><styleUrl>#green</styleUrl>
<TimeStamp>
<when>2017-10-27T16:23:44</when>
</TimeStamp>
<Point>
<coordinates>34.80035,32.168064</coordinates>
</Point>
</Placemark>
<Placemark>
<name><![CDATA[DanAccadia]]></name>
<description><![CDATA[BSSID: <b>0c:f4:d5:1b:09:98</b><br/>Frequency:<b>13</b><br/>Date: <b>2017-10-27 16:23:44</b>]]></description><styleUrl>#green</styleUrl>
<TimeStamp>
<when>2017-10-27T16:23:44</when>
</TimeStamp>
<Point>
<coordinates>34.80035,32.168064</coordinates>
</Point>
</Placemark>
<Placemark>
<name><![CDATA[BezeqNGN_98087]]></name>
<description><![CDATA[BSSID: <b>4c:60:de:42:20:28</b><br/>Frequency:<b>11</b><br/>Date: <b>2017-10-27 16:23:44</b>]]></description><styleUrl>#green</styleUrl>
<TimeStamp>
<when>2017-10-27T16:23:44</when>
</TimeStamp>
<Point>
<coordinates>34.80035,32.168064</coordinates>
</Point>
</Placemark>
<Placemark>
<name><![CDATA[DanAccadia]]></name>
<description><![CDATA[BSSID: <b>d8:38:fc:26:fd:18</b><br/>Frequency:<b>4</b><br/>Date: <b>2017-10-27 16:23:44</b>]]></description><styleUrl>#green</styleUrl>
<TimeStamp>
<when>2017-10-27T16:23:44</when>
</TimeStamp>
<Point>
<coordinates>34.80035,32.168064</coordinates>
</Point>
</Placemark>
<Placemark>
<name><![CDATA[DanAccadia]]></name>
<description><![CDATA[BSSID: <b>0c:f4:d5:1b:49:38</b><br/>Frequency:<b>7</b><br/>Date: <b>2017-10-27 16:23:44</b>]]></description><styleUrl>#green</styleUrl>
<TimeStamp>
<when>2017-10-27T16:23:44</when>
</TimeStamp>
<Point>
<coordinates>34.80035,32.168064</coordinates>
</Point>
</Placemark>
<Placemark>
<name><![CDATA[HOTBOX-3DFD]]></name>
<description><![CDATA[BSSID: <b>b4:ee:b4:a7:3e:03</b><br/>Frequency:<b>1</b><br/>Date: <b>2017-10-27 16:23:51</b>]]></description><styleUrl>#green</styleUrl>
<TimeStamp>
<when>2017-10-27T16:23:51</when>
</TimeStamp>
<Point>
<coordinates>34.801113,32.167976</coordinates>
</Point>
</Placemark>
<Placemark>
<name><![CDATA[Serge_2.4]]></name>
<description><![CDATA[BSSID: <b>c4:a8:1d:12:62:55</b><br/>Frequency:<b>11</b><br/>Date: <b>2017-10-27 16:23:51</b>]]></description><styleUrl>#green</styleUrl>
<TimeStamp>
<when>2017-10-27T16:23:51</when>
</TimeStamp>
<Point>
<coordinates>34.801113,32.167976</coordinates>
</Point>
</Placemark>
<Placemark>
<name><![CDATA[BEZEQINT-0301]]></name>
<description><![CDATA[BSSID: <b>14:ae:db:cb:03:05</b><br/>Frequency:<b>11</b><br/>Date: <b>2017-10-27 16:23:51</b>]]></description><styleUrl>#green</styleUrl>
<TimeStamp>
<when>2017-10-27T16:23:51</when>
</TimeStamp>
<Point>
<coordinates>34.801113,32.167976</coordinates>
</Point>
</Placemark>
<Placemark>
<name><![CDATA[HOTBOX-AB52]]></name>
<description><![CDATA[BSSID: <b>90:8d:78:e4:ab:7f</b><br/>Frequency:<b>11</b><br/>Date: <b>2017-10-27 16:23:51</b>]]></description><styleUrl>#green</styleUrl>
<TimeStamp>
<when>2017-10-27T16:23:51</when>
</TimeStamp>
<Point>
<coordinates>34.801113,32.167976</coordinates>
</Point>
</Placemark>
<Placemark>
<name><![CDATA[HOTBOX-AB52]]></name>
<description><![CDATA[BSSID: <b>c0:ac:54:f6:fc:e4</b><br/>Frequency:<b>11</b><br/>Date: <b>2017-10-27 16:23:51</b>]]></description><styleUrl>#green</styleUrl>
<TimeStamp>
<when>2017-10-27T16:23:51</when>
</TimeStamp>
<Point>
<coordinates>34.801113,32.167976</coordinates>
</Point>
</Placemark>
<Placemark>
<name><![CDATA[gary-flat]]></name>
<description><![CDATA[BSSID: <b>28:c6:8e:37:ab:72</b><br/>Frequency:<b>11</b><br/>Date: <b>2017-10-27 16:23:51</b>]]></description><styleUrl>#green</styleUrl>
<TimeStamp>
<when>2017-10-27T16:23:51</when>
</TimeStamp>
<Point>
<coordinates>34.801113,32.167976</coordinates>
</Point>
</Placemark>
<Placemark>
<name><![CDATA[claude_3]]></name>
<description><![CDATA[BSSID: <b>14:cc:20:09:3f:f6</b><br/>Frequency:<b>6</b><br/>Date: <b>2017-10-27 16:23:51</b>]]></description><styleUrl>#green</styleUrl>
<TimeStamp>
<when>2017-10-27T16:23:51</when>
</TimeStamp>
<Point>
<coordinates>34.801113,32.167976</coordinates>
</Point>
</Placemark>
<Placemark>
<name><![CDATA[HOTBOX-4ACF]]></name>
<description><![CDATA[BSSID: <b>d8:fb:5e:18:4a:d5</b><br/>Frequency:<b>11</b><br/>Date: <b>2017-10-27 16:23:51</b>]]></description><styleUrl>#green</styleUrl>
<TimeStamp>
<when>2017-10-27T16:23:51</when>
</TimeStamp>
<Point>
<coordinates>34.801113,32.167976</coordinates>
</Point>
</Placemark>
<Placemark>
<name><![CDATA[HOTBOX-1]]></name>
<description><![CDATA[BSSID: <b>c0:ac:54:f7:13:e3</b><br/>Frequency:<b>6</b><br/>Date: <b>2017-10-27 16:23:51</b>]]></description><styleUrl>#green</styleUrl>
<TimeStamp>
<when>2017-10-27T16:23:51</when>
</TimeStamp>
<Point>
<coordinates>34.801113,32.167976</coordinates>
</Point>
</Placemark>
<Placemark>
<name><![CDATA[Shohat01]]></name>
<description><![CDATA[BSSID: <b>7c:b7:33:ea:b3:b4</b><br/>Frequency:<b>2</b><br/>Date: <b>2017-10-27 16:23:51</b>]]></description><styleUrl>#green</styleUrl>
<TimeStamp>
<when>2017-10-27T16:23:51</when>
</TimeStamp>
<Point>
<coordinates>34.801113,32.167976</coordinates>
</Point>
</Placemark>
<Placemark>
<name><![CDATA[LEE2]]></name>
<description><![CDATA[BSSID: <b>00:b0:c6:57:6a:91</b><br/>Frequency:<b>2</b><br/>Date: <b>2017-10-27 16:23:54</b>]]></description><styleUrl>#green</styleUrl>
<TimeStamp>
<when>2017-10-27T16:23:54</when>
</TimeStamp>
<Point>
<coordinates>34.80142,32.167946</coordinates>
</Point>
</Placemark>
<Placemark>
<name><![CDATA[island-3927A0]]></name>
<description><![CDATA[BSSID: <b>d4:68:4d:79:27:a3</b><br/>Frequency:<b>9</b><br/>Date: <b>2017-10-27 16:23:54</b>]]></description><styleUrl>#green</styleUrl>
<TimeStamp>
<when>2017-10-27T16:23:54</when>
</TimeStamp>
<Point>
<coordinates>34.80142,32.167946</coordinates>
</Point>
</Placemark>
<Placemark>
<name><![CDATA[LEE2]]></name>
<description><![CDATA[BSSID: <b>00:b0:c6:57:6a:99</b><br/>Frequency:<b>36</b><br/>Date: <b>2017-10-27 16:23:54</b>]]></description><styleUrl>#green</styleUrl>
<TimeStamp>
<when>2017-10-27T16:23:54</when>
</TimeStamp>
<Point>
<coordinates>34.80142,32.167946</coordinates>
</Point>
</Placemark>
<Placemark>
<name><![CDATA[DianneC]]></name>
<description><![CDATA[BSSID: <b>bc:f6:85:0b:6c:bf</b><br/>Frequency:<b>6</b><br/>Date: <b>2017-10-27 16:23:54</b>]]></description><styleUrl>#green</styleUrl>
<TimeStamp>
<when>2017-10-27T16:23:54</when>
</TimeStamp>
<Point>
<coordinates>34.80142,32.167946</coordinates>
</Point>
</Placemark>
<Placemark>
<name><![CDATA[I.L.L]]></name>
<description><![CDATA[BSSID: <b>c0:ff:d4:bd:9e:30</b><br/>Frequency:<b>11</b><br/>Date: <b>2017-10-27 16:23:54</b>]]></description><styleUrl>#green</styleUrl>
<TimeStamp>
<when>2017-10-27T16:23:54</when>
</TimeStamp>
<Point>
<coordinates>34.80142,32.167946</coordinates>
</Point>
</Placemark>
<Placemark>
<name><![CDATA[Dror]]></name>
<description><![CDATA[BSSID: <b>7c:03:4c:ba:a6:1c</b><br/>Frequency:<b>11</b><br/>Date: <b>2017-10-27 16:24:02</b>]]></description><styleUrl>#green</styleUrl>
<TimeStamp>
<when>2017-10-27T16:24:02</when>
</TimeStamp>
<Point>
<coordinates>34.80222,32.167854</coordinates>
</Point>
</Placemark>
<Placemark>
<name><![CDATA[HOT1]]></name>
<description><![CDATA[BSSID: <b>c0:ac:54:f5:d7:ff</b><br/>Frequency:<b>11</b><br/>Date: <b>2017-10-27 16:24:04</b>]]></description><styleUrl>#green</styleUrl>
<TimeStamp>
<when>2017-10-27T16:24:04</when>
</TimeStamp>
<Point>
<coordinates>34.80243,32.16783</coordinates>
</Point>
</Placemark>
<Placemark>
<name><![CDATA[HOTBOX-C85E]]></name>
<description><![CDATA[BSSID: <b>7c:03:4c:ff:28:2c</b><br/>Frequency:<b>6</b><br/>Date: <b>2017-10-27 16:24:04</b>]]></description><styleUrl>#green</styleUrl>
<TimeStamp>
<when>2017-10-27T16:24:04</when>
</TimeStamp>
<Point>
<coordinates>34.80243,32.16783</coordinates>
</Point>
</Placemark>
<Placemark>
<name><![CDATA[Bezeq Free]]></name>
<description><![CDATA[BSSID: <b>5a:b0:ce:33:a4:d6</b><br/>Frequency:<b>1</b><br/>Date: <b>2017-10-27 16:24:07</b>]]></description><styleUrl>#green</styleUrl>
<TimeStamp>
<when>2017-10-27T16:24:07</when>
</TimeStamp>
<Point>
<coordinates>34.802673,32.1678</coordinates>
</Point>
</Placemark>
<Placemark>
<name><![CDATA[hagit_2.4]]></name>
<description><![CDATA[BSSID: <b>6c:b0:ce:33:a4:d5</b><br/>Frequency:<b>1</b><br/>Date: <b>2017-10-27 16:24:07</b>]]></description><styleUrl>#green</styleUrl>
<TimeStamp>
<when>2017-10-27T16:24:07</when>
</TimeStamp>
<Point>
<coordinates>34.802673,32.1678</coordinates>
</Point>
</Placemark>
<Placemark>
<name><![CDATA[Student]]></name>
<description><![CDATA[BSSID: <b>46:d9:e7:04:ff:2f</b><br/>Frequency:<b>1</b><br/>Date: <b>2017-10-27 16:24:07</b>]]></description><styleUrl>#green</styleUrl>
<TimeStamp>
<when>2017-10-27T16:24:07</when>
</TimeStamp>
<Point>
<coordinates>34.802673,32.1678</coordinates>
</Point>
</Placemark>
<Placemark>
<name><![CDATA[HOTFiber-C09E]]></name>
<description><![CDATA[BSSID: <b>b0:b2:8f:12:a6:86</b><br/>Frequency:<b>1</b><br/>Date: <b>2017-10-27 16:24:07</b>]]></description><styleUrl>#green</styleUrl>
<TimeStamp>
<when>2017-10-27T16:24:07</when>
</TimeStamp>
<Point>
<coordinates>34.802673,32.1678</coordinates>
</Point>
</Placemark>
<Placemark>
<name><![CDATA[Student]]></name>
<description><![CDATA[BSSID: <b>46:d9:e7:fe:83:ad</b><br/>Frequency:<b>1</b><br/>Date: <b>2017-10-27 16:24:07</b>]]></description><styleUrl>#green</styleUrl>
<TimeStamp>
<when>2017-10-27T16:24:07</when>
</TimeStamp>
<Point>
<coordinates>34.802673,32.1678</coordinates>
</Point>
</Placemark>
<Placemark>
<name><![CDATA[gella555]]></name>
<description><![CDATA[BSSID: <b>00:22:b0:75:7d:eb</b><br/>Frequency:<b>6</b><br/>Date: <b>2017-10-27 16:24:14</b>]]></description><styleUrl>#green</styleUrl>
<TimeStamp>
<when>2017-10-27T16:24:14</when>
</TimeStamp>
<Point>
<coordinates>34.802853,32.167786</coordinates>
</Point>
</Placemark>
<Placemark>
<name><![CDATA[opus7_5]]></name>
<description><![CDATA[BSSID: <b>c4:12:f5:84:50:3f</b><br/>Frequency:<b>48</b><br/>Date: <b>2017-10-27 16:24:49</b>]]></description><styleUrl>#green</styleUrl>
<TimeStamp>
<when>2017-10-27T16:24:49</when>
</TimeStamp>
<Point>
<coordinates>34.802944,32.167774</coordinates>
</Point>
</Placemark>
<Placemark>
<name><![CDATA[wingate]]></name>
<description><![CDATA[BSSID: <b>70:3a:cb:5f:4f:25</b><br/>Frequency:<b>6</b><br/>Date: <b>2017-10-27 16:24:52</b>]]></description><styleUrl>#green</styleUrl>
<TimeStamp>
<when>2017-10-27T16:24:52</when>
</TimeStamp>
<Point>
<coordinates>34.803097,32.167755</coordinates>
</Point>
</Placemark>
<Placemark>
<name><![CDATA[opus7]]></name>
<description><![CDATA[BSSID: <b>c4:12:f5:84:50:40</b><br/>Frequency:<b>8</b><br/>Date: <b>2017-10-27 16:25:00</b>]]></description><styleUrl>#green</styleUrl>
<TimeStamp>
<when>2017-10-27T16:25:00</when>
</TimeStamp>
<Point>
<coordinates>34.803417,32.16805</coordinates>
</Point>
</Placemark>
<Placemark>
<name><![CDATA[anna2.4]]></name>
<description><![CDATA[BSSID: <b>a0:ab:1b:62:76:ac</b><br/>Frequency:<b>2</b><br/>Date: <b>2017-10-27 16:25:00</b>]]></description><styleUrl>#green</styleUrl>
<TimeStamp>
<when>2017-10-27T16:25:00</when>
</TimeStamp>
<Point>
<coordinates>34.803417,32.16805</coordinates>
</Point>
</Placemark>